price,address,sqft_living,latitude,longitude,bedrooms,bathrooms,balcony,car_garage,type_of_building,price_sqft
61600.0,"Noida Extension, Noida, Delhi NCR",125.419104,28.60885,77.46056,3,3,2.0,1.0,Flat,491.1357044936312
96800.0,"Sector 79, Gurgaon, Delhi NCR",138.4255296,28.37423557,76.95241631,3,3,2.0,1.0,Flat,699.2882041319637
181500.0,"Vaishali, Ghaziabad, Delhi NCR",221.5737504,28.645769,77.38511,4,5,2.0,1.0,Flat,819.1120548907763
41910.0,"Link Road, F Block, Sector 50, Noida, Uttar Pradesh, Sector 1, Greater Noida, Delhi NCR",97.548192,28.566914,77.436434,2,2,3.0,1.0,Flat,429.5661369100516
68200.0,"Jaypee Pavilion Court Sector 128, Noida, Sector 128, Noida, Delhi NCR",125.419104,28.520732,77.356491,2,2,3.0,1.0,Flat,543.7066429688415
40700.0,"tower 2, 6th floor, Crossings Republik, Ghaziabad, Delhi NCR",106.838496,28.62804,77.437809,2,2,3.0,1.0,Flat,380.9024979161069
35970.0,"Nirala Aspire, GH03, Sector 16C, Hundal, Greater Noida, Uttar Pradesh 201306, Noida Extension Block C, Noida, Delhi NCR",82.68370560000001,28.610645,77.455837,2,2,3.0,1.0,Flat,435.0126755809067
43890.0,"Suncity Avenue 102, Sector 102, Gurgaon Bang on Dwarka Expressway having all Facilities of a gated Society., Sector 102, Gurgaon, Delhi NCR",78.967584,28.471233,76.969597,2,2,1.0,1.0,Flat,555.7837504563897
38500.0,"Sector 2, Greater Noida, Sector 2, Greater Noida, Delhi NCR",89.18691840000001,28.5814311,77.4528192,2,2,2.0,1.0,Flat,431.57898815797626
60500.0,"Gaur City 5th Avenue, Noida Extension, Noida, Noida Extension, Noida, Delhi NCR",130.064256,28.614181,77.427713,3,3,4.0,1.0,Flat,465.0870412851936
80300.0,"Sector 24 Rohini, New Delhi - Rohini, Delhi NCR",78.967584,28.72407531738281,77.0955810546875,3,2,1.0,2.0,Flat,1016.845089245734
84700.0,"Gurgaon - Faridabad Road, Gurgaon, Delhi NCR",116.1288,28.436305,77.13605,2,2,2.0,1.0,Flat,729.3625698362506
115500.0,"Sector 110A, Gurgaon, Chandan Vihar, Gurgaon, Delhi NCR",150.03840960000002,28.513139724731445,77.02595520019531,3,3,3.0,1.0,Flat,769.7379978093288
79200.0,"H-024, Gulshan Vivante, Sector-137, Noida, Sector 137, Noida, Delhi NCR",111.483648,28.5074613813646,77.4078166697626,2,2,3.0,1.0,Flat,710.4180875028417
77000.0,"G T Road, Ghaziabad, Delhi NCR",157.00613760000002,28.679009,77.3492951427093,3,3,2.0,1.0,Flat,490.4252864061283
104500.0,"Sector 24 Rohini, New Delhi - Rohini, Delhi NCR",92.90304,28.721435546875,77.10701751708984,3,2,1.0,2.0,Individual House,1124.8286385461658
165000.0,"Sector 24 Rohini, New Delhi - Rohini, Delhi NCR",134.709408,28.72721290588379,77.09606170654297,4,3,1.0,2.0,Individual House,1224.760782854899
52800.0,"Noida Extension, Noida, Delhi NCR",109.161072,28.616078045953845,77.42810224734058,2,2,2.0,1.0,Flat,483.67631457485135
56100.0,"NeelPadam Kunj, Vaishali, Sector 1, Ghaziabad, Sector 1 Vaishali, Ghaziabad, Delhi NCR",100.98560448,28.6443099975586,77.331787109375,2,2,2.0,1.0,Flat,555.4285414126383
154000.0,"Sector 45, Noida, Sector 45, Noida, Delhi NCR",171.4061088,28.5469297107013,77.3543872945106,3,3,3.0,2.0,Flat,898.4420746619269
68750.0,"Sector 37C, Gurgaon, Delhi NCR",130.064256,28.449384,76.98441,2,2,2.0,1.0,Flat,528.5510571021142
95700.0,"Sushant Lok 2, Gurgaon, Delhi NCR",148.644864,28.423049,77.08741,3,2,1.0,1.0,Flat,643.7571902921584
143000.0,"Sector 29, Noida, Delhi NCR",181.160928,28.5697371550333,77.3324116681809,3,3,2.0,1.0,Individual House,789.274495215657
165000.0,"flat number 703, kalypso tower 4, jaypee wish town noida, sector 128, Sector 128, Noida, Delhi NCR",167.22547200000002,28.529146,77.355843,2,3,1.0,1.0,Flat,986.6523205268632
60500.0,"Noida Extension, Noida., Noida Extension, Noida, Delhi NCR",133.7803776,28.587499354879053,77.44316979301459,3,2,5.0,1.0,Flat,452.1811126955587
46200.0,"Noida Extension, Noida, Noida Extension, Noida, Delhi NCR",96.6191616,28.616204,77.422256,2,2,3.0,2.0,Flat,478.1113728894124
42900.0,"Noida extension., Noida Extension, Greater Noida, Delhi NCR",95.225616,28.57223,77.474898,2,2,3.0,1.0,Flat,450.4050674768016
110000.0,"Sector 16 Vasundhara, Ghaziabad, Delhi NCR",170.56998144000002,28.6571606,77.355748,3,2,2.0,1.0,Individual House,644.8228174234125
83600.0,"Vaishali Ghaziabad, Vaishali, Ghaziabad, Delhi NCR",125.419104,28.645769,77.38511,3,2,4.0,1.0,Flat,666.4905690922492
42900.0,"Sector 81, Gurgaon, Sector 81, Gurgaon, Delhi NCR",74.322432,28.387731,76.96791987,2,2,1.0,1.0,Flat,577.2146960960588
99000.0,"sector 103 gurgaon, Dwarka Expressway, Gurgaon, Delhi NCR",137.58940224,28.49744987487793,77.02709197998047,2,2,2.0,2.0,Flat,719.416716611211
91850.0,"lotus boulevard, Sector 100, Noida, Delhi NCR",129.87844992,28.5434121846104,77.367853,2,2,2.0,1.0,Flat,707.1028030944949
148500.0,"Adhunik CGHS, Opp Tau Devil Lal Bio DiversitPark, Sector 52, Gurugram, Delhi NCR, Sector 52, Gurgaon, Delhi NCR",199.741536,28.435208771263,77.0902252334016,3,3,4.0,1.0,Individual House,743.4525285717237
58410.0,"Shakti Khand 2, Ghaziabad, Delhi NCR",102.193344,28.6467392,77.3709475,3,2,2.0,1.0,Flat,571.5313513960361
165000.0,"Sector 68, Gurgaon, Delhi NCR",182.0899584,28.3907304,77.05782257,3,3,2.0,1.0,Flat,906.1382706098744
192500.0,"Sector 104, Gurgaon, Sector 104, Gurgaon, Delhi NCR",227.61244800000003,28.482277,76.99199526,3,3,3.0,2.0,Flat,845.6343301575491
55000.0,"Aspire1106, Sector 78, Noida, Delhi NCR",92.90304,28.5604873040921,77.384084,2,2,3.0,1.0,Flat,592.0150729190347
38500.0,"Gali No 9, Garhi Jharia Maria, New Delhi - South, Delhi NCR",78.967584,28.559850692749023,77.24765014648438,2,2,1.0,1.0,Flat,487.4652110415332
50050.0,"Krishna Park Colony, New Delhi - South, Delhi NCR",88.25788800000001,28.50809,77.2314673,3,2,1.0,1.0,Flat,567.0320368418514
44000.0,"Amritpuri B East of Kailash, Amritpuri, New Delhi - South, Delhi NCR",65.032128,28.558586,77.2511855,2,2,2.0,1.0,Flat,676.5548253318728
38500.0,"Shalimar Garden Exten 1 near Gulmohar park, Shalimar garden, Ghaziabad, Delhi NCR",69.67728000000001,28.6895694732666,77.33861541748047,2,2,2.0,1.0,Flat,552.4684660480432
38500.0,"205. Hardik tower sector 53 Noida, Sector 53, Noida, Delhi NCR",88.25788800000001,28.5905383,77.35981,2,2,1.0,1.0,Individual House,436.1967057267448
26400.0,"Gali No-15 Sadnagar Palam New Delhi-110045, Palam Colony, New Delhi - Dwarka, Delhi NCR",50.1676416,28.59227180480957,77.08367919921875,2,2,1.0,1.0,Flat,526.182996810438
104500.0,"Patel Nagar West, New Delhi - West, Delhi NCR",111.483648,28.652429,77.1643181,2,2,2.0,1.0,Flat,937.2782634454156
115500.0,"Sector 65, Gurgaon, Delhi NCR",94.7611008,28.3978564,77.07393158,2,2,2.0,1.0,Flat,1218.8406321257085
82500.0,"G 033., Sector 108, Gurgaon, Delhi NCR",139.8190752,28.512136,76.986899,2,2,2.0,1.0,Flat,590.00222167111
52800.0,"Ghaziabad, Vivekanand Nagar, Ghaziabad, Delhi NCR",114.45654528,28.652807235717773,77.45092010498047,6,3,2.0,1.0,Flat,461.29814481851184
61600.0,"Gurgaon - Faridabad Road, Gurgaon, Delhi NCR",86.30692416000001,28.436305,77.13605,2,2,1.0,1.0,Flat,713.6149688966044
93500.0,"Vaishali, Ghaziabad, Delhi NCR",125.419104,28.647938,77.340697,3,3,2.0,1.0,Flat,745.4653798196484
51700.0,"Indirapuram Ghaziabad, Indirapuram, Ghaziabad, Delhi NCR",100.7997984,28.646509,77.3814882767311,2,2,2.0,1.0,Flat,512.8034561624678
93500.0,"Sector 108, Gurgaon, Delhi NCR",166.2964416,28.512136,76.986899,3,3,2.0,1.0,Flat,562.1775132439153
110000.0,"Sector 104, Gurgaon, Sector 104, Gurgaon, Delhi NCR",156.91323456,28.487018,76.998009,3,3,4.0,1.0,Flat,700.9458463361369
198000.0,"Sector 67, Gurgaon, Sector 67, Gurgaon, Delhi NCR",223.98922944,28.391644,77.06486457,3,3,3.0,2.0,Flat,883.8785038681187
136400.0,"2nd floor metro view apartment sector 13 B dwarka, Sector 13 Dwarka, New Delhi - Dwarka, Delhi NCR",153.290016,28.6016822982437,77.0319327881991,3,2,2.0,2.0,Flat,889.798654597309
84700.0,"Sector 137, Noida, Sector 137, Noida, Delhi NCR",156.54162240000002,28.5092080113141,77.4066255380327,3,4,4.0,1.0,Flat,540.9833736334139
66000.0,"Vaishali, Ghaziabad, Delhi NCR",97.548192,28.648794,77.3425322478785,2,2,2.0,1.0,Flat,676.5548253318728
137500.0,"sector 6 dwarka, Sector 6 Dwarka, New Delhi - Dwarka, Delhi NCR",120.773952,28.59344,77.065951,2,2,2.0,2.0,Flat,1138.4449852233038
70180.0,"Chhatarpur New Delhi, Chhattarpur, New Delhi - South, Delhi NCR",108.6965568,28.495893478393555,77.18599700927734,3,2,1.0,1.0,Flat,645.5332355109155
81400.0,"Sohna Road, Gurgaon, Sector 33, Gurgaon, Delhi NCR",118.451376,28.28709602355957,77.06906127929688,2,2,2.0,1.0,Flat,687.0926936298316
92400.0,"Sector 84, Gurugram, Haryana, Sihi, Gurgaon, Delhi NCR",175.5867456,28.410466,76.962531,3,3,4.0,1.0,Flat,526.182996810438
70400.0,"Sector 76, Noida, Sector 76, Noida, Delhi NCR",135.17392320000002,28.570142,77.3862730013034,3,2,3.0,1.0,Individual House,520.736458139583
209000.0,"Dwarka, New Delhi - Dwarka, Delhi NCR",164.25257472,28.5934318343359,77.0442727572328,3,2,2.0,2.0,Flat,1272.3587947175895
47300.0,"sector 1 greater noida west, Greater Noida West, Greater Noida, Delhi NCR",120.3094368,28.566914,77.436434,2,2,4.0,2.0,Individual House,393.0980084182391
261800.0,"Ibiza Town, Suraj Kund Road, Faridabad, Suraj Kund, Faridabad, Delhi NCR",325.16064,28.4818021,77.2200217,4,5,3.0,1.0,Flat,805.1404991698871
115500.0,"Plot No:1, Sadarpur, Sector-45, Noida, Uttar Pradesh 201303, Sector 45, Noida, Delhi NCR",171.87062400000002,28.548787,77.346032,3,4,2.0,2.0,Flat,671.9371077631043
118800.0,"Sector 32 Sohna Gurgaon Haryana, Sohna, Gurgaon, Delhi NCR",182.64737664,28.247592,77.069185,2,2,1.0,1.0,Flat,650.3877591088516
60500.0,"Indirapuram, Ghaziabad, Delhi NCR",125.419104,28.6493479,77.3696259,2,2,2.0,1.0,Flat,482.3738814144295
47520.0,"Sector 137, Noida, Sector 137, Noida, Delhi NCR",96.6191616,28.509118,77.413416,2,2,3.0,1.0,Flat,491.7277195665502
33000.0,"Sai Enclave niti khand indirapuram, Niti Khand-Indirapuram, Ghaziabad, Delhi NCR",74.322432,28.6452824,77.3621025,2,2,1.0,1.0,Flat,444.011304689276
38500.0,"Greater Noida, Greater Noida West, Greater Noida, Delhi NCR",88.25788800000001,28.579593,77.445197,2,2,3.0,1.0,Flat,436.1967057267448
176000.0,"F-54., South City 2, Gurgaon, Delhi NCR",185.80608,28.4178669,77.0512457,4,4,3.0,2.0,Flat,947.2241166704556
33000.0,"NH 24 Ghaziabad, NH 24, Ghaziabad, Delhi NCR",83.61273600000001,28.685449,77.5092258,2,2,3.0,1.0,Individual House,394.6372476078285
36300.0,"Park Lotus Surajpur Greater Noida, Surajpur, Greater Noida, Delhi NCR",89.18691840000001,28.5128413669417,77.4895533166212,2,2,1.0,1.0,Flat,406.95116112454446
90200.0,"Gurgaon - Faridabad Road, Gurgaon, Gwal Pahari, Gurgaon - South, Delhi NCR",127.37006784,28.433653,77.152919,2,2,3.0,2.0,Flat,708.1684302257493
66000.0,"Unitech Horizon Greater Noida, PI 2, Greater Noida, Delhi NCR",162.58032,28.475274,77.545978,3,3,1.0,2.0,Flat,405.88553399329015
45100.0,"NH 24 Ghaziabad, NH 24, Ghaziabad, Delhi NCR",120.68104896,28.519997,77.376873,3,2,4.0,1.0,Flat,373.6799140264947
57200.0,"plot no -02 E sector 12  Graeter noida west, Greater Noida West, Noida, Delhi NCR",126.8126496,28.60595893859864,77.44451141357422,3,2,3.0,2.0,Flat,450.99708254972063
231000.0,"godrej golf links, the crest, Pari Chowk, Greater Noida, Delhi NCR",260.128512,28.4655907,77.5114027,4,5,4.0,1.0,Flat,888.022609378552
29150.0,"Sector 4, Greater Noida, Greater Noida West, Greater Noida, Delhi NCR",77.5740384,28.609898,77.436343,2,2,2.0,1.0,Flat,375.6927652744194
110000.0,"Paschim Vihar, New Delhi - West, Delhi NCR",92.90304,28.6677244,77.0979515,2,2,2.0,1.0,Individual House,1184.0301458380693
49500.0,"A33 Shishram park Uttam Nagar, Uttam Nagar East, New Delhi - West, Delhi NCR",92.90304,28.63472366333008,77.04911041259766,3,2,1.0,1.0,Flat,532.8135656271312
75900.0,"B1 1103 The Romano sector 118 Noida, Sector 118, Noida, Delhi NCR",117.0578304,28.58548927307129,77.3993148803711,2,2,3.0,1.0,Flat,648.3749078609268
148500.0,"Sector 99, Gurgaon, Delhi NCR",225.289872,28.44456311,76.9550119,4,4,2.0,1.0,Flat,659.1495821880533
49500.0,"Pratap vihar Ghaziabad, Pratap Vihar, Ghaziabad, Delhi NCR",111.29784192,28.633363723754883,77.43121337890625,3,2,1.0,1.0,Flat,444.7217227767789
357500.0,"Sultanpur, New Delhi, Sultanpur, New Delhi - South, Delhi NCR",278.70912000000004,28.4969141,77.1652546,3,3,2.0,2.0,Flat,1282.6598569863804
121000.0,"Sector 71, Gurgaon, Delhi NCR",161.92999872,28.419032,77.028272,3,3,2.0,1.0,Individual House,747.1230220238217
35200.0,"Gali no 4, behind Aman bakery, Mahavir Enclave Part 1, New Delhi - Dwarka, Delhi NCR",60.386976,28.59803581237793,77.07652282714844,2,2,1.0,1.0,Flat,582.8980407960815
35200.0,"greater noida, Jalvayu Vihar, Greater Noida, Delhi NCR",75.7159776,28.446343,77.515305,2,2,2.0,1.0,Flat,464.85023525602605
37400.0,"Bhopura, Ghaziabad, Delhi NCR",97.548192,28.7005505,77.3286995,2,2,2.0,1.0,Flat,383.3889612223668
122100.0,"Ashoka Enclave Part 1, Faridabad, Delhi NCR",195.096384,28.468477249145508,77.31389617919922,4,3,2.0,1.0,Flat,625.7599320754197
38500.0,"Sector 5 Rajendra Nagar, Ghaziabad, Delhi NCR",83.61273600000001,28.6809994,77.356998,2,2,1.0,1.0,Flat,460.3509207018414
137500.0,"Unitech Fresco Nirvana Country Sector 50, Gurgaon, Nirvana Country, Gurgaon, Delhi NCR",170.56998144000002,28.414627,77.060127,3,3,3.0,2.0,Flat,806.0877232865575
93500.0,"Plot No. GH 03/A, Sector 143, Noida, Uttar Pradesh 201306, Sector 143A, Noida, Delhi NCR",138.8900448,28.502597,77.428742,3,2,2.0,1.0,Flat,673.1211379089424
46200.0,"Noida Extension, Noida, Noida Extension, Noida, Delhi NCR",96.6191616,28.616204,77.422256,2,2,2.0,1.0,Flat,478.1113728894124
99000.0,"panchwati appartments, Vikaspuri, New Delhi - West, Delhi NCR",116.1288,28.6401587513384,77.066265900795,2,2,2.0,1.0,Individual House,852.5017050034098
154000.0,"B-31/S-1, B- Block, Dilshad Garden, Shahdara, Delhi-110095, Dilshad Garden, New Delhi - East, Delhi NCR",232.2576,28.68651580810547,77.29942321777344,3,2,1.0,2.0,Flat,663.0568816693188
97900.0,"Sector 37D, Gurgaon, Delhi NCR",168.6190176,28.45251307,76.97627035,3,3,2.0,1.0,Flat,580.5299805044054
35200.0,"Raj Nagar Extension, Ghaziabad, Delhi NCR",96.71206464,28.701837981083,77.423206716491,2,2,3.0,1.0,Flat,363.85246381603866
165000.0,"S Block, Sector 49, Gurgaon, Delhi NCR",185.80608,28.412109,77.049522,4,4,3.0,2.0,Flat,888.022609378552
126500.0,"sector 84, Sihi, Gurgaon, Delhi NCR",182.36866752,28.406752,76.96474017,3,3,3.0,2.0,Flat,693.6048594319411
66000.0,"Sector 119, Noida -201301, Sector 119, Noida, Delhi NCR",115.75718784,28.5863287948209,77.4010620206905,2,2,3.0,1.0,Individual House,570.1105152210305
42900.0,"omicran near Parichowk supertech Czar, Omicron, Greater Noida, Delhi NCR",100.7997984,28.473679,77.506258,2,2,3.0,1.0,Flat,425.5404344142021
39600.0,"Ajanra le Garden, sector 16, greater noida, dist. Gautam budh nagar. U.P., Greater Noida West, Greater Noida, Delhi NCR",92.4385248,28.606945,77.455578568448,2,2,3.0,1.0,Individual House,428.3821067642135
82500.0,"Sector 77, Gurgaon, Delhi NCR",117.0578304,28.3824895,76.9823169,2,2,2.0,1.0,Individual House,704.7347428028188
198000.0,"Eastend Aptts, Mayur Vihar 1, New Delhi - East, Delhi NCR",157.935168,28.5884566,77.304787,4,3,1.0,1.0,Individual House,1253.6511184133478
189200.0,"Sector 10 Dwarka, New Delhi - Dwarka, Delhi NCR",188.128656,28.5858422747995,77.0606247868441,3,2,4.0,2.0,Flat,1005.5968028602724
187000.0,"Moti Nagar, New Delhi - West, Delhi NCR",148.644864,28.66662979125977,77.1522216796875,3,2,2.0,2.0,Flat,1258.0320299529487
60500.0,"sector 12 gurgaon, Sector 12, Gurgaon, Delhi NCR",106.838496,28.497455596923828,77.02713775634766,3,2,1.0,1.0,Flat,566.2032157397647
143000.0,"Kumar Excellency plaza, Sector 11 Vasundhara, Ghaziabad, Delhi NCR",213.676992,28.655845642089844,77.36822509765625,4,4,3.0,1.0,Flat,669.2138384276768
108900.0,"Sector 90, Gurugram, Haryana 122505, Sector 90, Gurgaon, Delhi NCR",163.50935040000002,28.407361,76.93426176,3,2,4.0,1.0,Flat,666.016957033914
77000.0,"Sanjiv Malhotra D-2, 208/209, Ground Floor Sector-11, Rohin, New Delhi- 110085, Sector 11 Rohini, New Delhi - Rohini, Delhi NCR",51.93279936,28.7295315,77.106949,2,2,2.0,1.0,Individual House,1482.6425486184305
56650.0,"Sector 143, Noida, Sector 143, Noida, Delhi NCR",114.64235136,28.500621,77.424203,2,2,2.0,1.0,Flat,494.0957798582263
82500.0,"Paschim Vihar, New Delhi, Paschim Vihar, New Delhi - West, Delhi NCR",65.032128,28.6628739905415,77.0977670161547,2,2,2.0,1.0,Flat,1268.5698982509075
28930.0,"415  81High street mall sector 81 not pull greater Faridabad, Sector 81, Faridabad, Delhi NCR",69.67728000000001,28.39244079589844,77.34424591064453,3,2,2.0,1.0,Flat,415.1209691308272
50600.0,"Uttam Nagar West, New Delhi - West, Delhi NCR",92.90304,28.618239,77.054361,3,2,2.0,1.0,Flat,544.6538670855119
82500.0,"G Tower, Amrapali Sapphire Phase I, Sector 45, Noida, Delhi NCR",129.1352256,28.548787,77.346032,3,2,3.0,1.0,Flat,638.7842636796385
77000.0,"Sector 69, Gurgaon, Sector 69, Gurgaon, Delhi NCR",123.18943104,28.397731,77.036526,3,3,3.0,1.0,Flat,625.0495139879168
63799.99999999999,"Sector 129, Noida, Delhi NCR",117.9868608,28.524543,77.364765,3,3,2.0,1.0,Flat,540.6281645896624
57200.0,"Sector 143, Noida, Delhi NCR",109.161072,28.500621,77.424203,2,2,2.0,1.0,Individual House,523.9333395333457
286000.0,"Sector 128 Noida, Sector 128, Noida, Delhi NCR",348.85091520000003,28.5279804259531,77.354191,4,6,2.0,2.0,Flat,819.8224729782793
220000.0,"DLF Capital Greens Phase 1, Moti Nagar, New Delhi - West, Delhi NCR",153.290016,28.666059,77.150134,3,3,4.0,1.0,Flat,1435.162939770324
35200.0,"895., Mehrauli, New Delhi - South, Delhi NCR",74.322432,28.5201861,77.179158,2,2,1.0,1.0,Flat,473.6120583352277
93500.0,"Near Dashmesh Hospital, Jail Road, Shiv Nagar, New Delhi - West, Delhi NCR",102.193344,28.6288025,77.0958556,2,2,2.0,1.0,Flat,914.9000936890762
47520.0,"Sector 67, Gurgaon, Delhi NCR",74.322432,28.38762,77.06237,2,2,2.0,1.0,Flat,639.3762787525575
73809.989,"Vasundhara, Ghaziabad, Vasundhara, Ghaziabad, Delhi NCR",109.6255872,28.65493,77.350989,2,2,2.0,1.0,Flat,673.2395409235262
185900.0,"firstfloor, Sushant Lok 1 Block C, Gurgaon, Delhi NCR",179.7673824,28.45451736450196,77.08187103271484,3,4,2.0,2.0,Flat,1034.013526360386
137500.0,"Sec 30, Near N M C hospital, Noida, Ram Vihar, Noida, Delhi NCR",167.22547200000002,28.576661,77.339673,3,3,2.0,1.0,Flat,822.1905332699554
55000.0,"Unitech Unihomes, Tower A1, Sector-117, Noida, Sector 117, Noida, Delhi NCR",111.483648,28.577634811401367,77.39510345458984,3,2,3.0,1.0,Flat,493.2669587561397
132000.0,"Lajpat Nagar, New Delhi, Lajpat Nagar 4, New Delhi - South, Delhi NCR",116.1288,28.564363,77.24171,2,2,2.0,2.0,Flat,1136.6689400045466
29700.0,"Plot Number 6 Flat number 101  Hans enclave Gurgaon, Hans Enclave, Gurgaon, Delhi NCR",71.5353408,28.497467041015625,77.027099609375,2,2,1.0,1.0,Flat,415.1209691308272
121000.0,"Vasundhara Enclave, New Delhi - East, Delhi NCR",111.483648,28.6017251,77.3178069,3,2,2.0,1.0,Flat,1085.2820316751745
154000.0,"Row House, Sector 21 Surya Vihar-, Gurgaon, Delhi NCR",232.2576,28.51766395568848,77.07933044433594,5,5,2.0,3.0,Flat,663.0568816693188
82500.0,"Sector 37D, Gurgaon, Delhi NCR",155.612592,28.446568,76.968477,3,3,2.0,1.0,Flat,530.0902962917037
132000.0,"4a/301, Sector 85, Gurgaon, Delhi NCR",234.11566080000003,28.406684,76.952289,4,3,3.0,1.0,Flat,563.7167524335049
45100.0,"Noida-Greater Noida Expy, Sector 134, Noida, Uttar Pradesh, Sector 134, Noida, Delhi NCR",92.90304,28.503955,77.384451,2,2,2.0,2.0,Flat,485.4523597936085
41690.0,"Wave Floor Sec- 2, Wave City N.H. - 24 Ghaziabad, Wave City, Ghaziabad, Delhi NCR",121.7029824,28.646836,77.508238,2,3,2.0,1.0,Flat,342.53992119095346
57200.0,"Indirapuram, Nyay Khand 1, Ghaziabad, Delhi NCR",98.9417376,28.63350296020508,77.43159484863281,2,2,3.0,2.0,Flat,578.0435171981454
137500.0,"Sector 70A, Gurgaon, Delhi NCR",170.01256320000002,28.385432,77.017122,3,3,3.0,1.0,Flat,808.6925896074014
167200.0,"Sector 48, Gurgaon, Delhi NCR",210.70409472,28.41492080688477,77.03590393066406,3,3,2.0,1.0,Flat,793.4186007260903
115500.0,"Sector 80, Gurgaon, Sector 80, Gurgaon, Delhi NCR",169.17643584,28.37561513,76.95761609,3,3,3.0,1.0,Individual House,682.7117820902308
44000.0,"Yamuna Expressway, Greater Noida, Delhi NCR",103.5868896,28.309616,77.55859,2,2,2.0,1.0,Flat,424.7116133121155
36629.989,"Sector 137, Noida, Delhi NCR",76.645008,28.505584,77.410762,2,2,2.0,1.0,Individual House,477.8745668602448
187000.0,"Niti Khand  1 Indirapuram Ghaziabad, Niti Khand-Indirapuram, Ghaziabad, Delhi NCR",325.16064,28.63601493835449,77.43365478515625,4,3,2.0,1.0,Flat,575.0834418335503
39600.0,"Plot No.1, Gadaipur, Mehrauli-Mandi Road, Gadaipur, New Delhi - South, Delhi NCR",69.67728000000001,28.4826489,77.1600563,2,2,2.0,1.0,Flat,568.3344700022733
49500.0,"sector 2, Rajendra Nagar, Ghaziabad, Delhi NCR",116.1288,28.68176651000977,77.36365509033203,3,2,1.0,1.0,Flat,426.25085250170497
60500.0,"I block - 21069, Noida Extension, Noida, Delhi NCR",127.74168,28.616204,77.422256,3,3,3.0,1.0,Flat,473.6120583352277
269500.0,"Sector 60, Gurgaon, Delhi NCR",259.84980288,28.400064,77.0959513,4,4,2.0,1.0,Individual House,1037.092004739565
55000.0,"NH 24, Ghaziabad, NH 24, Ghaziabad, Delhi NCR",136.5674688,28.663705,77.470854,3,2,3.0,1.0,Flat,402.6886525995274
137500.0,"Sector 17, Faridabad, Delhi NCR",292.64457600000003,28.40966796875,77.33113861083984,3,3,2.0,1.0,Flat,469.823161868546
81400.0,"Vasundhara, Ghaziabad, Delhi NCR",142.1416512,28.655782,77.3527833,3,2,3.0,1.0,Flat,572.5969785272903
45100.0,"H.No. 18A, Adarsh Nagar, Nandgram, Ghaziabad, Nand Gram, Ghaziabad, Delhi NCR",111.483648,28.69149398803711,77.40766906738281,3,2,2.0,1.0,Flat,404.4646978182845
176000.0,"Dwarka Sector 22, New Delhi, Sector 22 Dwarka, New Delhi - Dwarka, Delhi NCR",162.58032,28.5593993,77.0596789,3,2,3.0,2.0,Flat,1082.440359325163
35750.0,"Raj Nagar Extension Ghaziabad, Raj Nagar Extension, Ghaziabad, Delhi NCR",97.548192,28.7001920400432,77.427474,2,2,2.0,1.0,Individual House,366.4573301368824
60500.0,"2 Floor, Sector 16A, Faridabad, Delhi NCR",102.193344,28.4088605,77.314687,2,2,2.0,1.0,Flat,592.0150729190347
99000.0,"Sector 37D, Gurgaon, Sector 37D, Gurgaon, Delhi NCR",168.6190176,28.455376,76.97621181,3,3,3.0,1.0,Individual House,587.0421463065147
192500.0,"Moti Nagar, New Delhi, Moti Nagar, New Delhi - West, Delhi NCR",148.644864,28.666059494018555,77.15013122558594,3,2,3.0,1.0,Individual House,1294.9737705030966
108900.0,"Faridabad, Faridabad, Delhi NCR",153.290016,28.481460571289062,77.31151580810547,4,3,2.0,1.0,Flat,710.4180875028417
93500.0,"Indirapuram, Ghaziabad, Vaibhav Khand, Ghaziabad, Delhi NCR",135.6384384,28.63822364807129,77.3663558959961,3,3,3.0,1.0,Flat,689.2239478923401
64789.99999999999,"Shakti Khand 2, Shakti Khand 2, Ghaziabad, Delhi NCR",106.838496,28.6467399597168,77.3709487915039,3,2,2.0,1.0,Flat,606.3418376836754
99000.0,"Indirapuram, Ghaziabad, Indirapuram, Ghaziabad, Delhi NCR",167.22547200000002,28.646093,77.384003,3,2,2.0,1.0,Flat,592.0150729190347
264000.0,"Cgu061., Kirti Nagar, New Delhi - West, Delhi NCR",151.61776128,28.666059,77.150134,3,3,3.0,1.0,Flat,1741.116329454881
132000.0,"Sector 45, Noida, Sector 45, Noida, Delhi NCR",171.87062400000002,28.548787,77.346032,3,4,4.0,1.0,Flat,767.9619525905716
70400.0,"GA 703 Assotech Windsor court Sector 78Noida, Sector 78, Noida, Delhi NCR",129.1352256,28.56118695507,77.3865691983336,3,3,3.0,1.0,Flat,545.1274791438472
363000.0,"Golf course Extension Road, Gurgaon, Sector 66, Gurgaon, Delhi NCR",343.64834496000003,28.401255,77.053437,4,4,3.0,2.0,Individual House,1056.2732931021417
110000.0,"Second Floor Villa 83 Block III Charmwood Village, Charmwood Village, Faridabad, Delhi NCR",177.25900032,28.4913752,77.2908548,4,3,1.0,1.0,Individual House,620.5501994337322
93500.0,"Sector 75, Noida, Sector 75, Noida, Delhi NCR",143.99971200000002,28.5784405855563,77.3814075289833,3,2,3.0,1.0,Flat,649.2037289630134
81400.0,"Sector 143B, Noida, Uttar Pardes, Sector 143 B, Noida, Delhi NCR",137.49649920000002,28.495486,77.25219,3,3,2.0,1.0,Individual House,592.0150729190347
47300.0,"151., Indirapuram, Ghaziabad, Delhi NCR",89.93014272,28.6493479,77.3696259,3,2,1.0,1.0,Flat,525.9461907812704
63799.99999999999,"Sector 143A, Noida, Delhi NCR",106.838496,28.499248504638672,77.42980194091797,2,2,2.0,1.0,Flat,597.1064025461384
99000.0,"Sector 35 Sohna, Gurgaon, Delhi NCR",162.58032,28.283682,77.047379,3,3,2.0,1.0,Flat,608.8283009899352
38500.0,"Upper Ground Floor Plot Number 101 Lane No 6  Dwarka Mor Delhi West Delhi, Dwarka Mor, New Delhi - West, Delhi NCR",74.322432,28.63477325439453,77.0490951538086,3,2,1.0,1.0,Flat,518.0131888041553
137500.0,"Sector 19 Dwarka, New Delhi - Dwarka, Delhi NCR",157.935168,28.5775127933567,77.042535339585,2,2,3.0,1.0,Flat,870.4989632201487
68200.0,"Flat no. 1404 Floor 14th Tower Peace  Wing B Sikka Karni Green Sector 78 Noida, Sector 78, Noida, Delhi NCR",112.4126784,28.5604873040921,77.384084,2,3,3.0,1.0,Flat,606.5786437128429
28050.0,"Swaroop garden gurgaon, Rajendra Park, Gurgaon, Delhi NCR",50.1676416,28.49748611450196,77.02713012695312,2,2,1.0,1.0,Flat,559.0990348647364
66000.0,"Rr 9 top floor, naveen shahdara., Naveen Shahdara, New Delhi - East, Delhi NCR",102.193344,28.67613220214844,77.28523254394531,2,2,1.0,1.0,Flat,645.7700415400831
121000.0,"Mahindra Aura, Sector 110 A, Sector 110A, Gurgaon, Delhi NCR",149.5738944,28.513139,77.025952,3,3,3.0,1.0,Flat,808.929395636569
121000.0,"Indirapuram, Ghaziabad, Delhi NCR",208.5673248,28.6485932413911,77.3794392124472,4,3,2.0,1.0,Individual House,580.0563684460702
45100.0,"E 55B Vishwakarma Colony MB Road New Delhi 110044, Vishwakarma Colony, New Delhi - South, Delhi NCR",83.61273600000001,28.524024963378903,77.21276092529297,3,2,1.0,1.0,Flat,539.3257314292406
102300.0,"FLAT NO.301FLOOR-3RDBlock-HSECTOR 78-79MAPSKOMOUNTIVILLEGURGAON, Sector 79, Gurgaon, Delhi NCR",138.4255296,28.37423557,76.95241631,3,3,3.0,1.0,Flat,738.953214017539
82500.0,"342 Durgapuri Extension Delhi India, Durgapuri Extension, New Delhi - East, Delhi NCR",116.1288,28.686542510986328,77.29959869384766,3,2,2.0,2.0,Flat,710.4180875028417
49500.0,"flat no 1203 Paras seasons 168 Noida, Sector 168, Noida, Delhi NCR",104.9804352,28.4962932685044,77.4085199482841,3,2,2.0,1.0,Flat,471.4808040727192
103400.0,"15051., Sector 150, Noida, Delhi NCR",150.96744,28.42491581294641,77.486721,3,2,3.0,1.0,Individual House,684.8430363527393
37400.0,"Lg3/78., Sector 6 Vaishali, Ghaziabad, Delhi NCR",83.61273600000001,28.6485885,77.3533389,2,2,1.0,1.0,Flat,447.2081860830388
77000.0,"Delhi., Subhash Park-Shahdara, New Delhi - East, Delhi NCR",93.64626432,28.686573028564453,77.29962921142578,3,2,1.0,2.0,Flat,822.1905332699554
247500.0,"Kalkaji, New Delhi - South, Delhi NCR",176.51577600000002,28.543664932250977,77.25489807128906,3,3,2.0,1.0,Flat,1402.1284987014417
220000.0,"D 1001 BPTP Freedom Park Life Sector 57 Gurgaon, Sector 57, Gurgaon, Delhi NCR",225.56858112,28.423439458762,77.0691066564545,3,4,3.0,2.0,Flat,975.2856311268176
106700.0,"C-177, First Floot, Kendriya Vihar, Sector 56, Gurgaon, Kendriya Vihar, Gurgaon, Delhi NCR",116.1288,28.4245106404379,77.1013245863658,3,2,2.0,2.0,Individual House,918.8073931703418
49500.0,"Near Andolan Park, Canara Bank, Savitri Nagar Village, New Delhi - South, Delhi NCR",74.322432,28.539813995361328,77.21868133544922,2,2,2.0,1.0,Flat,666.016957033914
29150.0,"Shivani enclave old palam road kakrola dwarka., Kakrola, New Delhi - Dwarka, Delhi NCR",56.48504832,28.634742736816406,77.04910278320312,2,2,1.0,1.0,Flat,516.0003375562306
31900.0,"Bhopura, Ghaziabad, Delhi NCR",89.6514336,28.728555,77.337353,2,2,2.0,1.0,Flat,355.80105882433986
77000.0,"Sector 119, Noida, Delhi NCR",116.68621824,28.5898617123258,77.4034337616235,2,2,1.0,1.0,Flat,659.860000275556
66440.0,"Raj Nagar Extension, NH 58, Ghaziabad, Uttar Pradesh, India., Raj Nagar, Ghaziabad, Delhi NCR",124.58297664,28.682107,77.4465784,3,2,2.0,1.0,Flat,533.2871776854664
242000.0,"Sector 27, Greater Noida, Noida, Uttar Pradesh, Sector 27, Greater Noida, Delhi NCR",263.3801184,28.470149,77.535673,4,5,4.0,2.0,Individual House,918.8073931703418
33000.0,"Laxmi Nagar, New Delhi - East, Delhi NCR",58.52891520000001,28.68641662597656,77.2995834350586,2,2,1.0,1.0,Flat,563.7167524335049
258500.0,"Golf Course Road, Gurgaon, Golf Course Road, Gurgaon, Delhi NCR",277.3155744,28.441368,77.098124,3,3,2.0,1.0,Flat,932.0685308037282
165000.0,"Sector 75, Noida, Sector 75, Noida, Delhi NCR",236.902752,28.5750243,77.3803,4,4,5.0,2.0,Flat,696.4465317819523
121000.0,"Sector 70 Gurgaon, Sector 70, Gurgaon, Delhi NCR",140.2835904,28.3930662,77.022442,3,2,4.0,1.0,Flat,862.4475582284497
49500.0,"janki puri, Uttam Nagar, New Delhi - West, Delhi NCR",92.90304,28.621288299560547,77.05307006835938,3,2,1.0,1.0,Flat,532.8135656271312
55000.0,"sanskriti Vihar GC 16, C-16, Greater Noida, Delhi NCR",111.9481632,28.453581,77.556221,2,2,2.0,1.0,Flat,491.25410750821504
44000.0,"Gaur Green City 2, Avenue 16, Noida Extension Block D, Noida, Delhi NCR",93.8320704,28.619028,77.425972,2,2,3.0,1.0,Flat,468.8759377518755
68200.0,"palam Village Delhi, Palam, New Delhi - Dwarka, Delhi NCR",88.25788800000001,28.634750366210938,77.04913330078125,3,2,1.0,1.0,Flat,772.6980731739241
107800.0,"Sector 37D, Gurgaon, Delhi NCR",163.9738656,28.4460523,76.9772858,3,3,2.0,1.0,Flat,657.3735369692962
72600.0,"Sector 76, Noida, Delhi NCR",135.17392320000002,28.5684777,77.3775,3,3,4.0,1.0,Flat,537.0760741521483
60500.0,"Sector 15 Dwarka, New Delhi - Dwarka, Delhi NCR",92.90304,28.615032,77.0290715,3,2,2.0,1.0,Flat,651.2165802109381
165000.0,"Sector 56, Gurgaon, Delhi NCR",176.51577600000002,28.424436569213867,77.09821319580078,3,3,2.0,1.0,Flat,934.6733971245718
145200.0,"Vasundhara sector 5 ghaziabad, Vasundhara, Ghaziabad, Delhi NCR",179.7673824,28.642318725585938,77.42117309570312,3,3,2.0,1.0,Flat,807.626962476147
30800.0,"Shalimar garden Ghaziabad, Shalimar garden, Ghaziabad, Delhi NCR",74.322432,28.63578224182129,77.43241882324219,2,2,1.0,1.0,Individual House,414.4105510433243
154000.0,"naer bluebells school, Sector 4, Gurgaon, Delhi NCR",167.22547200000002,28.47489356994629,77.00980377197266,3,3,1.0,1.0,Flat,920.8202444182664
37400.0,"Indirapuram, Ghaziabad, Delhi NCR",78.967584,28.6493479,77.3696259,2,2,2.0,1.0,Flat,473.6120583352277
126500.0,"Sector 68, Gurgaon, Sector 68, Gurgaon, Delhi NCR",137.31069312,28.386791,77.049466,2,2,3.0,1.0,Flat,921.175453462018
36300.0,"201 Whitney homes sector 121 noida, Sector 121, Noida, Delhi NCR",83.61273600000001,28.600419998168945,77.44546508789062,2,2,1.0,1.0,Flat,434.0654514642362
66000.0,"Alistonia Estate, Greater Noida, Delhi NCR",114.64235136,28.438316345214844,77.51483154296875,2,2,2.0,1.0,Flat,575.6754569064693
61600.0,"Zeta 2, Greater Noida, Delhi NCR",140.00488128,28.517742,77.529334,2,3,2.0,1.0,Individual House,439.8671991788428
63799.99999999999,"FirstTower at Gate2T18 Flat Floor-No06-02, Type C, Unit Type 3BHK Servent 3T UT., Sector 137, Noida, Delhi NCR",126.8126496,28.589075088500977,77.32030487060547,3,3,2.0,1.0,Flat,503.09440896659567
23100.0,"Avantika Extension, Ghaziabad, Delhi NCR",57.1353696,28.6738471,77.4829531,2,2,1.0,1.0,Flat,404.2278917891169
57200.0,"Antriksh Golf view 1Sector 78Noida, Sector 78, Noida, Delhi NCR",105.9094656,28.5575028022171,77.386464965331,2,2,3.0,1.0,Individual House,540.0361495167434
84150.0,"Sector 47 Sohna Road, Sector 47, Gurgaon, Delhi NCR",92.62433088,28.425657,77.04300339,2,2,2.0,1.0,Flat,908.5063309015504
60500.0,"plot number 2261 Adarsh Nagar gurgaon, Adarsh Nagar, Gurgaon, Delhi NCR",102.193344,28.49742317199707,77.02734375,3,2,1.0,1.0,Flat,592.0150729190347
59400.0,"Eldeco Golf View Apartments, Sector Omega 1, Greater Noida, Uttar Pradesh, Omega 1, Greater Noida, Delhi NCR",130.52877120000002,28.4570313,77.514304,3,2,3.0,2.0,Individual House,455.0227850455701
93500.0,"Sector 119, Noida, Sector 119, Noida, Delhi NCR",164.902896,28.588371,77.400313,3,3,3.0,2.0,Flat,566.9136338272676
66000.0,"A5 Kewal Park Extension Delhi India, Kewal Park, New Delhi - North, Delhi NCR",92.90304,28.686418533325195,77.299560546875,3,3,2.0,1.0,Flat,710.4180875028417
192500.0,"c113 3rd floor Shakti nagar extension ashok vihar phase 3 Delhi 110052, Ashok Vihar Phase 3, New Delhi - North, Delhi NCR",154.03324032,28.68220329284668,77.18806457519531,3,2,1.0,2.0,Flat,1249.6254159174985
26950.0,"Sadullapur, Near Bloom International School, Greater Noida West, Sadullapur, Greater Noida, Delhi NCR",58.52891520000001,28.591666,77.484749,2,2,1.0,1.0,Flat,460.3509207018414
80300.0,"Indirapuram Ghaziabad, Indirapuram, Ghaziabad, Delhi NCR",161.83709568,28.641756,77.3788593620366,3,2,1.0,1.0,Flat,496.1086311061511
159500.0,"Dwarka Sector 23, New Delhi, Sector 23 Dwarka, New Delhi - Dwarka, Delhi NCR",153.290016,28.5621338401025,77.0567893768121,3,2,3.0,1.0,Individual House,1040.4072891479116
52800.0,"Sector 46, Noida, Delhi NCR",88.25788800000001,28.5507543331581,77.3616874515359,2,2,3.0,1.0,Flat,598.1720296773926
46200.0,"Gyan Khand 1, Ghaziabad, Delhi NCR",74.322432,28.641779,77.3502969,2,2,2.0,1.0,Flat,621.6158265649864
140800.0,"ireo uptown Sector 66 gurgaon, Sector 66, Gurgaon, Delhi NCR",136.75327488000002,28.39522652,77.05988662,2,3,3.0,1.0,Flat,1029.5142118062013
302500.0,"Plot no- 77 Sector 13 Dwarka, Sector 13 Dwarka, New Delhi - Dwarka, Delhi NCR",209.03184,28.5994675,77.0349205,4,4,2.0,1.0,Flat,1447.121644243288
132000.0,"K tower, Sector 45, Noida, Delhi NCR",171.87062400000002,28.548787,77.346032,3,4,2.0,2.0,Flat,767.9619525905716
82500.0,"Sector 30, Gurgaon, Jal Vayu Vihar, Gurgaon, Delhi NCR",83.61273600000001,28.4584723542826,77.0525565353357,2,2,1.0,1.0,Individual House,986.6523205268632
38500.0,"Shalimar Garden Extension 1, Ghaziabad, Delhi NCR",97.548192,28.633676528930664,77.43097686767578,2,2,2.0,2.0,Flat,394.6372476078285
42350.0,"D Block Jawahar Park KhanpurNew Delhi, Jawahar Park, New Delhi - South, Delhi NCR",66.8901888,28.52319526672364,77.21430969238281,2,2,1.0,1.0,Individual House,633.1009189796156
88000.0,"Kaushambi, Ghaziabad, Kaushambi, Ghaziabad, Delhi NCR",143.99971200000002,28.6354490945654,77.3238143396458,3,2,2.0,1.0,Flat,611.0779582670276
47850.0,"Omicron 1, Greater Noida, Delhi NCR",120.773952,28.4626703284033,77.5583025174588,3,3,2.0,1.0,Flat,396.176486797418
99000.0,"Sector 107, Gurgaon, Delhi NCR",142.69906944000002,28.514908,76.974388,2,2,4.0,1.0,Individual House,693.7232624465248
55000.0,"Tech Zone IV Gautam Budh NagarGreater Noida (West), Greater Noida West, Greater Noida, Delhi NCR",119.3804064,28.605958,77.444512,2,2,4.0,1.0,Flat,460.7061297455928
63799.99999999999,"House No 47 Block E  Floor 1 Sec 11 Faridabad, Sector 11, Faridabad, Delhi NCR",125.419104,28.34699821472168,77.32400512695312,3,2,2.0,2.0,Individual House,508.6593506520346
46200.0,"Sector 1, Greater Noida, Delhi NCR",124.0255584,28.5661101,77.4406099,2,2,2.0,1.0,Flat,372.49588388065655
97900.0,"2931., Sushant Lok 1 Block C, Gurgaon, Delhi NCR",92.90304,28.454517,77.081868,2,2,2.0,2.0,Flat,1053.786829795882
104500.0,"T1 - 401., Sector 37D, Gurgaon, Delhi NCR",168.24740544000002,28.45251307,76.97627035,3,3,4.0,1.0,Individual House,621.0238114920674
50600.0,"Noida Extension, Greater Noida, Noida Extension, Greater Noida, Delhi NCR",109.161072,28.617567,77.426765,3,2,3.0,1.0,Flat,463.4293990810204
220000.0,"Sector 6 Dwarka, New Delhi - Dwarka, Delhi NCR",157.935168,28.5962,77.067013,3,3,2.0,1.0,Flat,1392.893063563905
31900.0,"Sector 107, Gurgaon, Dwarka-Manesar Expressway, Gurgaon, Delhi NCR",51.46828416,28.51348116,76.971479,2,2,2.0,1.0,Flat,619.7213783316455
148500.0,"C4A/9A Janak Puri New Delhi 110058, Janakpuri, New Delhi - West, Delhi NCR",139.35456000000002,28.621054,77.0905294,4,3,2.0,1.0,Flat,1065.6271312542624
44000.0,"Sector 88, Faridabad, Delhi NCR",116.1288,28.4189198883071,77.3555759540603,2,2,2.0,1.0,Flat,378.8896466681823
308000.0,"c-1/41 a, Budh Vihar Phase 1, New Delhi - Rohini, Delhi NCR",204.386688,28.63664054870605,77.12469482421875,6,5,2.0,1.0,Flat,1506.9151666081111
44000.0,"Indirapuram, Ghaziabad, Uttar Pradesh, Gyan Khand 3, Ghaziabad, Delhi NCR",78.967584,28.645341,77.3549293203382,2,2,1.0,1.0,Flat,557.0861836168117
88000.0,"Vasundhara Enclave, New Delhi - East, Delhi NCR",92.90304,28.6005236146549,77.3116078326732,2,2,2.0,1.0,Flat,947.2241166704556
141900.0,"Pocket 4 Akash Ganga Appartment  Sector 24, Sector 24 Rohini, New Delhi - Rohini, Delhi NCR",130.064256,28.7265057161352,77.0833665378642,3,2,2.0,1.0,Flat,1090.9653763751971
99000.0,"Sector 76, Noida, Delhi NCR",123.096528,28.5685416949121,77.3792999293712,3,2,3.0,1.0,Flat,804.1932750532166
35200.0,"aditya world city NH 24 Ghaziabad, NH 24, Ghaziabad, Delhi NCR",78.0385536,28.683082,77.50921,2,2,2.0,1.0,Flat,450.99708254972063
45100.0,"Block E, Sector 85, Faridabad, Sector 85, Faridabad, Delhi NCR",98.9417376,28.4042306,77.3559561,3,2,3.0,1.0,Flat,455.7332031330729
77000.0,"R025d101203/flat #1203., Greater Noida West, Noida, Delhi NCR",147.2513184,28.605958,77.444512,3,3,3.0,1.0,Flat,522.8677124020915
495000.0,"N Block Greater Kailash 1, GK I, New Delhi - South, Delhi NCR",250.838208,28.522932052612305,77.21456909179688,4,4,2.0,2.0,Flat,1973.3046410537263
82500.0,"Sector 119, Noida, Sector 119, Noida, Delhi NCR",140.7481056,28.5898617123258,77.4034337616235,3,3,3.0,1.0,Flat,586.0949221898444
78100.0,"Ranjeet Nagar, New Delhi - West, Delhi NCR",83.61273600000001,28.63475799560547,77.0490951538086,2,2,2.0,1.0,Flat,933.9629790370692
77000.0,"E-1005, Prateek Laurel, sector-120, Sector 120, Noida, Delhi NCR",105.4449504,28.587310508382,77.3959017798717,2,2,1.0,1.0,Flat,730.1913909383372
88000.0,"Sector 62Noida stellar park apartments, C Block, Noida, Delhi NCR",139.35456000000002,28.614131927490234,77.36986541748047,3,3,1.0,1.0,Flat,631.4432767754423
59950.0,"Greater Noida West, Greater Noida West, Greater Noida, Delhi NCR",136.5674688,28.579593,77.445197,3,2,3.0,1.0,Flat,438.91997506217234
242000.0,"C 409 B  Sushant Lok Phase 1  Gurgaon, Sushant Lok 1 Block C, Gurgaon, Delhi NCR",250.838208,28.34468650817871,77.32616424560547,4,4,2.0,3.0,Flat,964.747762828859
165000.0,"Sector 168, Noida, Sector 168, Noida, Delhi NCR",211.354416,28.493247,77.408015,3,4,5.0,1.0,Flat,780.6310751510391
53900.0,"Gaur Yamuna City 16th Park View, Taj Expressway, Noida, Delhi NCR",137.03198400000002,28.432445526123047,77.50791931152344,3,3,3.0,1.0,Flat,393.3348144474066
140800.0,"Sector 85, Gurgaon, Sector 85, Gurgaon, Delhi NCR",170.66288448,28.409389,76.951659,3,3,2.0,1.0,Flat,824.9138026053829
198000.0,"D-7/23 Sector 15 Rohini, Sector 15 Rohini, New Delhi - Rohini, Delhi NCR",222.967296,28.634740829467773,77.04914855957031,4,2,3.0,1.0,Flat,888.022609378552
99000.0,"Sector 137, Noida, Sector 137, Noida, Delhi NCR",181.160928,28.509118,77.413416,4,3,4.0,1.0,Flat,546.429912304269
159500.0,"Sector 5, Vasundhara, Ghaziabad, Uttar Pradesh., Sector 5 Vasundhara, Ghaziabad, Delhi NCR",179.7673824,28.660121,77.379704,3,4,3.0,1.0,Flat,887.1937882764654
357500.0,"Sector C Vasant Kunj, New Delhi - South, Delhi NCR",222.967296,28.53547477722168,77.1448974609375,3,3,3.0,2.0,Flat,1603.2952204793296
286000.0,"H block dlf phase 1 Gurugram, DLF City Phase 1, Gurgaon, Delhi NCR",225.7543872,28.49748039245605,77.02710723876953,3,3,2.0,1.0,Flat,1266.7938530321503
64899.99999999999,"Sector 76, Noida, Sector 76, Noida, Delhi NCR",92.4385248,28.575883,77.3853589646162,2,2,3.0,1.0,Flat,702.0114734673913
52800.0,"Gurgaon, Sector 105, Gurgaon, Delhi NCR",92.90304,28.49750709533692,77.02711486816406,3,3,2.0,1.0,Flat,568.3344700022733
132000.0,"Sector 79, Gurgaon, Delhi NCR",184.22672832,28.35895365,76.971587,3,3,5.0,2.0,Flat,716.4566412466157
85800.0,"Sector 107, Noida, Delhi NCR",120.3094368,28.542912592576,77.37203148936,2,2,2.0,1.0,Individual House,713.1413568382692
77000.0,"G T Road, Ghaziabad, Delhi NCR",169.0835328,28.6761797963942,77.3962820106621,3,3,3.0,2.0,Flat,455.3779940893215
38500.0,"Sector 2 Rajendra Nagar, Ghaziabad, Delhi NCR",74.322432,28.687614,77.351924,2,2,2.0,1.0,Flat,518.0131888041553
118800.0,"Sector 137, Noida, Delhi NCR",176.05126080000002,28.508273,77.4089761622089,3,3,2.0,1.0,Flat,674.7787801131157
101200.0,"Vasundhara Enclave, New Delhi - East, Delhi NCR",92.90304,28.60172462463379,77.31781005859375,2,2,2.0,1.0,Individual House,1089.307734171024
110000.0,"Nehru Nagar Ghaziabad, Nehru Nagar, Ghaziabad, Delhi NCR",167.22547200000002,28.636091232299805,77.43346405029297,3,3,1.0,1.0,Flat,657.7287460130475
52800.0,"Flat B-1201, BPTP Princess Park, Sector 86, Neherpar, Faridabad, Faridabad, Sector 86, Faridabad, Delhi NCR",138.14682048,28.4065234101184,77.3429934243275,3,2,3.0,1.0,Flat,382.086528061945
192500.0,"Sector 63A, Gurgaon, Delhi NCR",222.967296,28.397099,77.086716,3,3,2.0,2.0,Flat,863.2763793305363
148500.0,"Sector 43, Gurgaon, Delhi NCR",213.676992,28.45518493652344,77.08667755126953,3,3,3.0,1.0,Flat,694.9072925923629
93500.0,"Alpha 1, Greater Noida, Uttar Pradesh",143.53519680000002,28.4734678310178,77.5053685993689,3,3,2.0,1.0,Flat,651.334983225522
49500.0,"Hari Nagar Ashram New Delhi, Hari Nagar Ashram, New Delhi - South, Delhi NCR",92.90304,28.496795654296875,77.228515625,2,2,1.0,1.0,Flat,532.8135656271312
173800.0,"Sector 51, Gurgaon, Delhi NCR",213.676992,28.4287815,77.0661409,3,3,2.0,1.0,Flat,813.3103071761698
357500.0,"New Delhi, Safdarjung Enclave, Safdarjung Enclave, New Delhi - South, Delhi NCR",169.91966016,28.564027,77.1945069,3,3,2.0,1.0,Individual House,2103.9031661396657
75900.0,"Indirapuram, Ghaziabad, Indirapuram, Ghaziabad, Delhi NCR",126.53394048,28.650108,77.363755,3,3,4.0,1.0,Flat,599.8296718815659
99000.0,"Siddhartha Vihar Ghaziabad, Siddhartha Vihar, Ghaziabad, Delhi NCR",128.2061952,28.646286,77.406051,3,2,4.0,1.0,Flat,772.106058101005
27500.0,"Rajendra Park, Gurgaon, Delhi NCR",52.0257024,28.497602462768555,77.02706909179688,2,2,1.0,1.0,Flat,528.5510571021142
324500.0,"Gautam budh nagar, Greater Noida, Delhi NCR",278.70912000000004,28.469204,77.511335,4,4,2.0,1.0,Flat,1164.2568424025735
24200.0,"Sudipto roy, c-1/33, sf4, dlf ankur vihar, loni, ghaziabad., Loni, Ghaziabad, Delhi NCR",83.61273600000001,28.738864,77.263605,2,2,1.0,1.0,Individual House,289.3769676428242
162800.0,"B3 Tower, Sector 52, Gurgaon, Delhi NCR",190.451232,28.44359907502,77.0798618095476,3,4,4.0,1.0,Flat,854.7513622805022
522500.0,"sector 48 Gurgaon, Sohna Road, Gurgaon, Delhi NCR",427.353984,28.4124748256981,77.039877,5,6,2.0,1.0,Flat,1222.6295285923904
104500.0,"332 A, Tower - 32, Gulmohur Greens, Mohan Nagar, Ghaziabad, Uttar Pradesh, Pin - 201005, Gulmohur Greens, Ghaziabad, Delhi NCR",164.902896,28.686595916748047,77.3729476928711,3,3,3.0,2.0,Flat,633.6929340525347
32450.0,"H2-1101., Bhopura, Ghaziabad, Delhi NCR",97.548192,28.7264530405965,77.3373385265705,2,2,2.0,1.0,Flat,332.5940679659137
28050.0,"JC-34, Ground Floor, Khirki Extention, Malviya Nagar, New Delhi, Khirki extension, New Delhi - South, Delhi NCR",62.709552,28.5315337,77.216852,2,2,2.0,1.0,Flat,447.2081860830388
49500.0,"Noida Extension, Greater Noida, Delhi NCR",107.95333248,28.532593,77.399792,3,2,4.0,1.0,Flat,458.45647246850046
38279.989,"Mahavir Enclave Part 1, New Delhi - Dwarka, Delhi NCR",65.032128,28.5980365,77.0765245,2,2,2.0,1.0,Flat,588.5813854961043
59400.0,"Ace aspire, Noida Extension, Noida, Delhi NCR",107.7675264,28.5894599721197,77.429712,2,2,3.0,1.0,Flat,551.1660328876213
79200.0,"Flat No 701 Tower 3 Floor 7 Sec 48 Faridabad, Sector 48, Faridabad, Delhi NCR",194.6318688,28.410634342974,77.2862061141823,4,3,2.0,2.0,Flat,406.8327581099607
52360.0,"GH 04, Sector 16C, Gaur City 2, Greater Noida, Uttar Pradesh 201318, Noida Extension, Noida, Delhi NCR",110.5546176,28.620768,77.425805,2,2,3.0,1.0,Individual House,473.6120583352277
35200.0,"Sector 49 Faridabad, Sector 49, Faridabad, Delhi NCR",75.25146240000001,28.34562110900879,77.32642364501953,3,2,1.0,1.0,Flat,467.69190760603743
115500.0,"Plot No. GH 03/A, Sector 143, Noida, Uttar Pradesh 201306, Sector 143 B, Noida, Delhi NCR",157.4706528,28.50320625305176,77.42758178710938,3,3,3.0,2.0,Individual House,733.3882723321002
42900.0,"Sector 137, Noida, Delhi NCR",76.645008,28.5073636,77.4091,2,2,2.0,1.0,Flat,559.6910499376554
137500.0,"Sector 88A, Gurugram, Haryana, Sector 88A, Gurgaon, Delhi NCR",171.87062400000002,28.43058099,76.94862,3,3,4.0,2.0,Flat,799.9307665281997
76559.989,"Sector 143, Noida, Delhi NCR",124.4900736,28.502597,77.428742,3,3,2.0,1.0,Flat,614.9852577482932
30250.0,"Dream Homes Nh24, NH 24, Ghaziabad, Delhi NCR",78.967584,28.638572692871094,77.43085479736328,2,2,2.0,1.0,Flat,383.0337521786154
84700.0,"Gurgaon - Faridabad Road, Gurgaon, Delhi NCR",128.2061952,28.436305,77.13605,2,2,3.0,1.0,Individual House,660.5704183630589
66000.0,"Ghaziabad kaushambi, Kaushambi, Ghaziabad, Delhi NCR",120.773952,28.6390639,77.3242583,2,2,3.0,1.0,Flat,546.429912304269
66000.0,"plot number 34 block H10 vatika Emelia floors sector 82 gurgaon, Sector 82, Gurgaon, Delhi NCR",92.90304,28.49747657775879,77.0271224975586,2,2,2.0,1.0,Flat,710.4180875028417
49500.0,"Second Floor with roof, Sector 5 Vaishali, Ghaziabad, Delhi NCR",92.90304,28.643642,77.34532,2,2,2.0,1.0,Flat,532.8135656271312
66000.0,"Chiranjeev Vihar, Ghaziabad, Chiranjiv Vihar, Ghaziabad, Delhi NCR",125.419104,28.675872,77.474266,3,2,3.0,1.0,Flat,526.182996810438
93500.0,"Prateek Grand City, Siddharth Vihar, Ghaziabad, Siddhartha Vihar, Ghaziabad, Delhi NCR",128.2061952,28.646286,77.406051,3,2,5.0,1.0,Flat,729.2441668216669
82500.0,"S 485 School block Shakarpur Delhi India, Shakarpur, New Delhi - East, Delhi NCR",108.6965568,28.6865234375,77.29961395263672,3,2,1.0,2.0,Flat,758.9633234822023
50600.0,"Kiran Garden, New Delhi - West, Delhi NCR",86.95724544000001,28.61848831176757,77.04781341552734,3,2,2.0,1.0,Flat,581.8324136648273
60500.0,"Sector 86, Faridabad, Delhi NCR",152.91840384,28.409642442543,77.3394093097949,3,3,2.0,1.0,Flat,395.5844717244989
60500.0,"Kamla Nagar, New Delhi - North, Delhi NCR",92.90304,28.68645095825196,77.29950714111328,3,2,1.0,1.0,Flat,651.2165802109381
73590.0,"Sector 80, Faridabad, Delhi NCR",150.96744,28.3751182042664,77.3487447637588,3,2,2.0,1.0,Individual House,487.3468080269494
49500.0,"Sector 7, Gurgaon, Delhi NCR",74.322432,28.4658641,77.0133095,2,2,2.0,1.0,Individual House,666.016957033914
83600.0,"Sector 107, Gurgaon, Sector 107, Gurgaon, Delhi NCR",142.51326336,28.514908,76.974388,3,2,4.0,1.0,Flat,586.5685342481796
99000.0,"vaishali Ghaziabad, Sector 3 Vaishali, Ghaziabad, Delhi NCR",155.612592,28.641557693481445,77.34053802490234,3,2,3.0,1.0,Flat,636.1793973587947
26950.0,"sec 5 Vasundhara Ghaziabad, Sector 5 Vasundhara, Ghaziabad, Delhi NCR",65.9611584,28.63623237609864,77.43350982666016,2,2,1.0,1.0,Individual House,408.490400314134
59400.0,"C-16, Greater Noida, Delhi NCR",119.8449216,28.453581,77.556221,2,2,3.0,1.0,Individual House,495.63501904781583
106700.0,"Flat no. 703 7th Floor  Multistorey Appartmemt Tower Alpine Divine Meadows Sector 108 Noida 201301, Sector 108, Noida, Delhi NCR",163.32354432000002,28.525440190628448,77.37445081275675,3,4,3.0,1.0,Flat,653.2294314588629
93500.0,"Sector 93Noida parsvanath srishti, Sector 93, Noida, Delhi NCR",145.76486976,28.5185331699767,77.3868441507347,3,3,3.0,2.0,Flat,641.3891300004822
88000.0,"New krishna nagar, gali no-5 near radheypuri jain mandir, Krishna Nagar, New Delhi - East, Delhi NCR",138.23972352,28.68657112121582,77.29962921142578,3,2,1.0,1.0,Flat,636.5346064025462
46200.0,"Ajnara Le Garden Greater Noida West, Greater Noida West, Greater Noida, Delhi NCR",115.6642848,28.606945,77.455578568448,3,2,3.0,1.0,Flat,399.3733681911808
60500.0,"Ashoka Enclave Part 3, Faridabad, Delhi NCR",111.483648,28.470754,77.308632,3,2,1.0,1.0,Flat,542.6410158375871
220000.0,"Sector 52  Gurgaon, Sector 52, Gurgaon, Delhi NCR",301.93488,28.4359934738699,77.0903169926199,4,4,4.0,2.0,Flat,728.533748734164
110000.0,"302, pearl square., Vaishali, Ghaziabad, Delhi NCR",171.87062400000002,28.645225,77.342198,3,3,2.0,1.0,Individual House,639.9682938254765
71500.0,"Mohan Garden, Uttam Nagar, Mohan Garden, New Delhi - West, Delhi NCR",125.419104,28.6330645,77.0331715,4,4,1.0,1.0,Flat,569.9921122064466
149600.0,"Sector 70A, Gurgaon, Sector 70A, Gurgaon, Delhi NCR",199.741536,28.383489,77.020563,3,3,3.0,2.0,Individual House,748.8990672425789
163900.0,"Efp-iii-37-0202., Sector 65, Gurgaon, Delhi NCR",153.290016,28.397952,77.069057,3,3,3.0,1.0,Individual House,1069.1792216917763
115500.0,"GGN 01 0202 Sector 102 Gurgaon, Sector 102, Gurgaon, Delhi NCR",153.290016,28.47631072998047,76.97161102294922,3,3,2.0,1.0,Flat,753.3983817967635
121000.0,"Plot no 46-47, Pocket size, Rohini Sector 21, Sector 21 Rohini, New Delhi - Rohini, Delhi NCR",112.8771936,28.7141266,77.0676456,4,3,2.0,1.0,Flat,1071.9024910272042
335500.0,"New Delhi, Meera Bagh, New Delhi - West, Delhi NCR",250.838208,28.6575870513916,77.0895767211914,4,3,2.0,1.0,Flat,1337.4804527386832
93500.0,"f-801, Sector 78, Noida, Delhi NCR",124.9545888,28.560232,77.3886066876544,3,2,3.0,1.0,Flat,748.1886491550761
83600.0,"sector 37C gurgaon, Sector 37C, Gurgaon, Delhi NCR",148.644864,28.44926,76.98476024,3,3,3.0,1.0,Flat,562.4143192730829
495000.0,"T tower, Dlf City Phase 4, Gurgaon, Delhi NCR",377.55795456,28.464031,77.0854754271584,4,5,5.0,3.0,Flat,1310.9581774719104
71500.0,"Rz- 89/A, Nand vihar Near Dwarka Metro Station, Dwarka New Delhi -78, Sector 16 Dwarka, New Delhi - Dwarka, Delhi NCR",102.193344,28.6347713470459,77.04911041259766,3,2,3.0,1.0,Flat,699.6434131757152
115500.0,"F-479, Sarita Vihar Pocket F, New Delhi - South, Delhi NCR",102.193344,28.5336945,77.295901,2,2,2.0,1.0,Flat,1130.1567742024372
330000.0,"183 flat no.3 tower 1 floor 8th Windsor GreensSector 50 Noida 201301, Sector 50, Noida, Delhi NCR",418.06368,28.578346,77.3736925785826,7,5,2.0,2.0,Flat,789.274495215657
165000.0,"New Delhi, Gurgaon, Delhi NCR",200.6705664,28.70186233520508,77.14009857177734,3,3,3.0,1.0,Flat,822.1905332699554
33000.0,"Loni, Ghaziabad, Delhi NCR",72.92888640000001,28.7662162,77.2705047,2,2,2.0,1.0,Flat,452.4179187247263
115500.0,"Swarnnagari, Greater Noida, Swarnnagari, Greater Noida, Delhi NCR",241.547904,28.4588790608948,77.5227112396079,3,4,4.0,3.0,Flat,478.1113728894124
181500.0,"Sector 45, Noida, Delhi NCR",229.0059936,28.548787,77.346032,4,4,4.0,1.0,Flat,792.4713766094197
62699.99999999999,"Greater Noida West, Greater Noida, Sector 16, Greater Noida, Delhi NCR",154.31194944,28.60477828979492,77.45191192626953,3,3,3.0,1.0,Flat,406.2407430370416
61600.0,"Bhopura, Ghaziabad, Delhi NCR",153.7545312,28.7005505,77.3286995,3,3,2.0,1.0,Flat,400.55739833701887
25300.0,"New Delhi, Dwarka Mor, New Delhi - West, Delhi NCR",54.348278400000005,28.61931610107422,77.03326416015625,2,2,1.0,1.0,Flat,465.4422503289451
170500.0,"144., Sector 4 Dwarka, New Delhi - Dwarka, Delhi NCR",148.644864,28.60241996,77.05425039,3,2,1.0,2.0,Flat,1146.9700022733375
77000.0,"Sector 82, Gurgaon, Delhi NCR",105.25914432,28.38981649,76.969342,2,2,3.0,1.0,Flat,731.4938240987592
34650.0,"Bhopura, Ghaziabad, Bhopura, Ghaziabad, Delhi NCR",97.548192,28.7264530405965,77.3373385265705,2,2,3.0,1.0,Flat,355.20904375142084
110000.0,"Ramprastha Edge Towers, Dwarka Expressway, Gurgaon, Delhi NCR",153.290016,28.44837760925293,76.96952819824219,3,3,2.0,1.0,Flat,717.52226837787
37400.0,"near IGNOU University, Neb Sarai, New Delhi - South, Delhi NCR",66.8901888,28.50693702697754,77.20652770996094,2,2,1.0,1.0,Flat,559.0990348647364
387200.0,"903., Behrampur, Gurgaon, Delhi NCR",277.3155744,28.410913,77.107908,3,3,2.0,2.0,Flat,1396.2083479722512
55000.0,"G1104 Brave hearts Rajnagar extension Ghaziabad, Raj Nagar Extension, Ghaziabad, Delhi NCR",125.419104,28.7068974705185,77.429488,3,2,3.0,1.0,Flat,438.44636300383706
35200.0,"Govindpuram, Ghaziabad, Delhi NCR",77.5740384,28.617142,77.438927,3,2,2.0,1.0,Flat,453.7203518851482
107800.0,"H 304., Sector 70, Noida, Delhi NCR",170.84869056000002,28.59594917297364,77.38369750976562,3,4,4.0,1.0,Flat,630.8512617025233
53680.0,"Raj Nagar Extension, Ghaziabad, Garhi, Ghaziabad, Delhi NCR",109.6255872,28.635957717895508,77.43235778808594,2,2,3.0,1.0,Individual House,489.59646530404166
35200.0,"Village Sheikh Sarai, Nr Reliance Fresh.  New Delhi-110017, Savitri Nagar Village, New Delhi - South, Delhi NCR",60.386976,28.5398139,77.2186828,2,2,1.0,1.0,Individual House,582.8980407960815
58300.0,"Sector 143, Noida, Delhi NCR",109.161072,28.500621,77.424203,2,2,2.0,1.0,Flat,533.9975957729692
57750.0,"A-1625., Greenfields Colony Block A, Faridabad, Delhi NCR",102.193344,28.465711,77.2962675,2,2,1.0,1.0,Flat,565.0191855939266
60500.0,"plot 131 flat ff3 Gyan khand 1 Indirapuram Ghaziabad, Gyan Khand 1, Ghaziabad, Delhi NCR",130.064256,28.64177894592285,77.35029602050781,3,2,1.0,1.0,Flat,465.0870412851936
55000.0,"Sector 34, Noida, Delhi NCR",92.90304,28.58390998840332,77.36087036132812,2,2,2.0,1.0,Flat,592.0150729190347
268400.0,"Naraina, New Delhi - West, Delhi NCR",185.80608,28.631580352783203,77.14045715332031,3,3,1.0,1.0,Flat,1444.5167779224446
47300.0,"Mahavir Enclave Part 1, New Delhi - Dwarka, Delhi NCR",81.75467520000001,28.5980365,77.0765245,2,2,2.0,1.0,Flat,578.5171292564808
38500.0,"vikas vihar New Delhi, Uttam Nagar East, New Delhi - West, Delhi NCR",65.032128,28.634769439697266,77.04902648925781,3,2,1.0,1.0,Individual House,592.0150729190347
137500.0,"A-601., Sector 77, Gurgaon, Delhi NCR",185.80608,28.387227,76.980183,3,3,4.0,1.0,Flat,740.0188411487934
187000.0,"EARTH UMIYA SADAN, PATEL CGHS, SECTOR 4, DWARKA, Sector 4 Dwarka, New Delhi - Dwarka, Delhi NCR",139.35456000000002,28.6014647960921,77.0524147268374,3,3,3.0,2.0,Flat,1341.861364278284
29150.0,"Plot no 3 SPS Homes 1st Floor  Flat No 001 Ashok vihar Phase 2 Gurgaon, Ashok Vihar Phase 2, Gurgaon, Delhi NCR",50.1676416,28.4838094,77.027832,2,2,1.0,1.0,Individual House,581.0035925627407
88000.0,"Sector 32 Sohna, Gurgaon, Delhi NCR",101.54302272,28.283756,77.079837,2,2,2.0,1.0,Flat,866.591663738883
44000.0,"flat No. F1 Plot No. 34 First Floor Vikram Enclave Shalimar Garden Extn. Distt. Ghaziabad ., Vikram Enclave, Ghaziabad, Delhi NCR",102.193344,28.668643951416016,77.47614288330078,3,2,2.0,2.0,Flat,430.51336102672207
27500.0,"Vijay Enclave, New Delhi - West, Delhi NCR",55.741824,28.60611724853516,77.0787582397461,2,2,2.0,1.0,Flat,493.2669587561397
275000.0,"B - 35, South City 2, Sector 49, Gurgaon, South City 2, Gurgaon, Delhi NCR",250.838208,28.41772079467773,77.05281066894531,4,5,4.0,1.0,Individual House,1096.2935120314685
125399.989,"Shaheed Budh Ram Singh Marg, Abhimanyu Appartment, Vasundhara Enclave, New Delhi, Vasundhara Enclave, New Delhi - East, Delhi NCR",130.064256,28.6013562305396,77.3193583454046,3,3,2.0,1.0,Individual House,964.037344741356
60500.0,"L-., Ahinsa Khand 1, Ghaziabad, Delhi NCR",106.46688384,28.640515,77.376783,2,2,2.0,1.0,Flat,568.2160669876895
116600.0,"Mahagun Merabella Sector 79 Noida Uttar Pradesh 201301, Sector 79, Noida, Delhi NCR",160.72225920000002,28.588912963867188,77.32035827636719,3,3,3.0,1.0,Flat,725.455270354985
121000.0,"B113, ground floor, ardee city sector 52 Gurgaon, Sector 52, Gurgaon, Delhi NCR",139.35456000000002,28.44207,77.075517,4,4,2.0,1.0,Flat,868.2493059430562
80850.0,"Ajnara Daffodil Sector 137 Noida, Sector 137, Noida, Delhi NCR",133.3158624,28.58905982971192,77.32012939453125,3,2,4.0,1.0,Flat,606.3418376836754
55000.0,"Omicron 3, Greater Noida, Delhi NCR",129.5997408,28.474501,77.553187,3,2,2.0,2.0,Flat,424.356404268364
41800.0,"Indirapuram, Ghaziabad, Delhi NCR",82.40499648000001,28.6493479,77.3696259,2,2,2.0,1.0,Flat,507.23851447702896
55000.0,"Bhopura, Ghaziabad, Delhi NCR",119.8449216,28.728555,77.337353,3,2,5.0,1.0,Flat,458.8116815122519
34100.0,"Raj Nagar Extension, Ghaziabad, Raj Nagar Extension, Ghaziabad, Delhi NCR",99.870768,28.7110974928065,77.4173944062228,2,2,2.0,1.0,Flat,341.3558910451154
99000.0,"Aditya celebrity Homes Sector 76Noida, Sector 76, Noida, Delhi NCR",154.2190464,28.575371,77.3843750590211,3,4,3.0,1.0,Flat,641.8627420588174
121000.0,"sector 150, noida, Sector 150, Noida, Delhi NCR",185.80608,28.42491581294641,77.486721,3,4,3.0,2.0,Flat,651.2165802109381
165000.0,"G-50, 2nd Floor, East Of Kailash, New Delhi-110065, East Of Kailash, New Delhi - South, Delhi NCR",125.419104,28.5573445,77.2508955,3,2,1.0,1.0,Flat,1315.575895040679
148500.0,"Plot No. 25 I.P. Extn Delhi India, Indraprastha Extension, New Delhi - East, Delhi NCR",171.87062400000002,28.6232998,77.29979,4,3,1.0,2.0,Flat,863.9867974180391
264000.0,"173 2nd Floor Sukhdev Vihar, new delhi, Sukhdev Vihar, New Delhi - South, Delhi NCR",185.80608,28.5538385,77.2740986,3,3,3.0,2.0,Flat,1420.8361750056831
66000.0,"Jubilant Tower, Sector 143 B, Noida, Delhi NCR",106.838496,28.495486,77.25219,2,2,2.0,1.0,Flat,617.7085270837207
412500.0,"J 11 Saket New Delhi, J Block-Saket, New Delhi - South, Delhi NCR",260.128512,28.496801376342773,77.2285385131836,4,4,2.0,3.0,Flat,1585.6531713063423
65449.99999999999,"Paras Tierea sector 137 Noida, Sector 137, Noida, Delhi NCR",123.5610432,28.588842391967773,77.3203125,3,2,2.0,1.0,Flat,529.6166842333685
56540.0,"Raj Nagar Extension, Ghaziabad, Delhi NCR",126.3481344,28.7040534,77.4373305,3,2,2.0,1.0,Flat,447.4449921122064
99000.0,"B207-08., Sector 70A, Gurgaon, Delhi NCR",148.644864,28.389346,77.018875,3,3,2.0,1.0,Individual House,666.016957033914
38500.0,"West Guru Angad Nagar, Laxmi Nagar District Centre, New Delhi - East, Delhi NCR",58.064400000000006,28.6288811,77.2771884,2,2,1.0,1.0,Flat,663.0568816693188
247500.0,"C-116 Ground floor front portion inderpuri new Delhi 110012, Inderpuri, New Delhi - West, Delhi NCR",167.22547200000002,28.62617874145508,77.14634704589844,3,3,2.0,2.0,Flat,1480.0376822975868
74800.0,"Indirapuram, Ghaziabad, Indirapuram, Ghaziabad, Delhi NCR",101.7288288,28.6352719273543,77.370394643261,2,2,2.0,1.0,Flat,735.2827205654411
242000.0,"South City 2, South City 2, Gurgaon, Delhi NCR",325.16064,28.41772,77.05281,4,4,4.0,2.0,Flat,744.1629466592265
121000.0,"dwarka, Sansad Vihar, New Delhi - Dwarka, Delhi NCR",106.838496,28.6053976726683,77.0506656579695,2,2,2.0,3.0,Flat,1132.5248344941133
92400.0,"SG.1/705, Saya Gold Avenue Indrapuram., Indirapuram, Ghaziabad, Delhi NCR",100.3352832,28.6352719273543,77.370394643261,2,2,2.0,1.0,Flat,920.8202444182664
137500.0,"F Block, Gangotri Apartment, Vikaspuri, New Delhi, Vikaspuri, New Delhi - West, Delhi NCR",103.1223744,28.6424511631066,77.0684764871488,3,3,3.0,2.0,Flat,1333.33634722825
62699.99999999999,"D block Kaushambi Ghaziabad, Kaushambi, Ghaziabad, Delhi NCR",102.193344,28.6420559,77.323499,2,2,1.0,1.0,Flat,613.4460185587037
44000.0,"Sector 89, Faridabad, Sector 89, Faridabad, Delhi NCR",100.3352832,28.4237892,77.3705248,3,2,2.0,1.0,Flat,438.44636300383706
165000.0,"Indraprastha encalave, Sector 17 Dwarka, New Delhi - Dwarka, Delhi NCR",125.419104,28.59210777282715,77.02819061279297,3,3,1.0,1.0,Flat,1315.575895040679
44000.0,"Koyal Enclave, Bhopura, Ghaziabad, Delhi NCR",100.3352832,28.694223,77.4519,2,2,2.0,1.0,Individual House,438.44636300383706
57200.0,"Sector 89, Faridabad, Sector 89, Faridabad, Delhi NCR",147.2513184,28.4160962813136,77.364809703776,3,3,2.0,1.0,Flat,388.3618878348867
30800.0,"Omicron 1, Greater Noida, Delhi NCR",80.8256448,28.4585848688924,77.5609127744684,2,2,2.0,1.0,Flat,381.02090093069074
88000.0,"Sector 82, Faridabad, Sector 82, Faridabad, Delhi NCR",188.77897728,28.3938425,77.3506549,3,4,4.0,1.0,Flat,466.1526684164479
275000.0,"MG Road  Sector 28  Gurgaon, M G Road, Gurgaon, Delhi NCR",253.99691136,28.476479,77.073757,4,4,4.0,1.0,Flat,1082.6771653543308
152899.989,"J3/46B, 3rd Floor, Rajouri Garden, New Delhi - West, Delhi NCR",133.7803776,28.643348693847656,77.12055969238281,3,4,1.0,1.0,Individual House,1142.8258967629044
165000.0,"D-49, sector- 08, Dwarka, Sector 8 Dwarka, New Delhi - Dwarka, Delhi NCR",176.51577600000002,28.5712739,77.07314,3,3,1.0,1.0,Flat,934.6733971245718
203500.0,"Sector 9 Rohini, New Delhi - Rohini, Delhi NCR",116.1288,28.7122271523308,77.1233781129008,3,2,2.0,2.0,Flat,1752.3646158403426
33000.0,"Pratap vihar Ghaziabad, Sector 12 Pratap Vihar, Ghaziabad, Delhi NCR",65.032128,28.6362247467041,77.43367004394531,2,2,2.0,1.0,Flat,507.3569174916127
49500.0,"Avenue 69 Sector 69 Gurgaon, Sector 69, Gurgaon, Delhi NCR",92.90304,28.345653533935547,77.32646179199219,2,2,2.0,2.0,Flat,532.8135656271312
63799.99999999999,"26/44 second floor patel nagar New Delhi 110008, Patel Nagar West, New Delhi - West, Delhi NCR",83.61273600000001,28.65242958068848,77.16432189941406,2,2,2.0,1.0,Flat,762.9890259780519
258500.0,"Sector 4, Gurgaon, Delhi NCR",297.289728,28.47489356994629,77.00980377197266,4,5,5.0,2.0,Flat,869.4333360888943
51700.0,"Bhgwati Garden Exctention Dwarka Mor New Delhi, Dwarka Mor, New Delhi - West, Delhi NCR",103.1223744,28.63481330871582,77.04915618896484,3,2,2.0,1.0,Flat,501.3183637478385
187000.0,"Dwarka Sector 6, New Delhi, Sector 6 Dwarka, New Delhi - Dwarka, Delhi NCR",139.35456000000002,28.59344,77.065951,4,2,1.0,1.0,Flat,1341.861364278284
57200.0,"D-24 B, Second Floor, Street No 4 Radheypuri, Krishna Nagar, Delhi 110091, Krishna Nagar, New Delhi - East, Delhi NCR",69.67728000000001,28.68640518188477,77.2997055053711,2,2,2.0,2.0,Flat,820.8881001095334
110000.0,"Express Greens Sector 1, Vaishali, Ghaziabad, Delhi NCR, India., Vaishali, Ghaziabad, Delhi NCR",158.86419840000002,28.6441755,77.336519,3,3,5.0,1.0,Flat,692.302426271519
82500.0,"Sector 68, Gurgaon, Delhi NCR",113.3417088,28.386791,77.049466,2,2,3.0,1.0,Flat,727.8233306466611
46200.0,"H-Tower, Greater Noida West, Greater Noida, Delhi NCR",96.6191616,28.605958,77.444512,2,2,2.0,1.0,Flat,478.1113728894124
132000.0,"Mayur Vihar 1, New Delhi - East, Delhi NCR",148.644864,28.686429977416992,77.29959106445312,4,4,2.0,1.0,Flat,888.022609378552
46200.0,"NH 24, Ghaziabad, NH 24, Ghaziabad, Delhi NCR",105.4449504,28.66288,77.47096,2,2,3.0,1.0,Individual House,438.0911539600857
154000.0,"Ground Floor Sector 2 Vaishali Ghaziabad, Vaishali, Ghaziabad, Delhi NCR",185.80608,28.6362419128418,77.43365478515625,4,4,1.0,2.0,Flat,828.8211020866486
69300.0,"78-R New Colony, New Colony, Gurgaon, Haryana, New Colony, Gurgaon, Delhi NCR",83.61273600000001,28.46552467346192,77.01718139648438,2,2,1.0,2.0,Flat,828.8211020866486
302500.0,"Har1503., Indirapuram, Ghaziabad, Delhi NCR",309.55292928,28.382828,77.221297,4,5,8.0,2.0,Flat,977.1800793601586
117700.0,"Plot 10/1, Block A, Vaibhav Khand, Indirapuram, Ghaziabad, Uttar Pradesh, Vaibhav Khand, Ghaziabad, Delhi NCR",137.49649920000002,28.6352719273543,77.370394643261,3,2,2.0,1.0,Flat,855.9353924263403
30800.0,"P 1204., Raj Nagar Extension, Ghaziabad, Delhi NCR",86.3998272,28.708744,77.417028,2,2,3.0,1.0,Flat,356.3930738972589
27500.0,"Shree Radhey Apartment  Near mangalam store Ward No-03, Mehrauli, New Delhi-110030, Mehrauli, New Delhi - South, Delhi NCR",65.032128,28.5201861,77.179158,2,2,1.0,1.0,Flat,422.81716507877456
97900.0,"Siddhartha Vihar, Ghaziabad, Siddhartha Vihar, Ghaziabad, Delhi NCR",147.2513184,28.646286,77.406051,3,3,4.0,1.0,Flat,664.8329268880759
52800.0,"Block F, Beta II, Rampur Jagir, Greater Noida., Beta 2, Greater Noida, Delhi NCR",113.806224,28.48515,77.51401,3,2,2.0,1.0,Flat,463.9030111393556
68200.0,"Sector 76, Noida, Sector 76, Noida, Delhi NCR",122.1674976,28.5654147528131,77.383196,3,2,5.0,1.0,Flat,558.1518107480659
70400.0,"Sector 137 Noida, Sector 137, Noida, Delhi NCR",118.63718208,28.508174896240234,77.40982055664062,3,2,4.0,1.0,Individual House,593.3175060794566
48400.0,"Sewak Park, Dwarka More, Uttam Nagar, New Delhi, Sewak Park, New Delhi - Dwarka, Delhi NCR",83.61273600000001,28.500947952270508,77.23358154296875,3,2,1.0,1.0,Flat,578.7539352856484
63799.99999999999,"Sector 118, Sector 118, Noida, Delhi NCR",117.0578304,28.584165020633,77.4064917144491,2,2,3.0,1.0,Flat,545.0090761292633
104500.0,"Prateek wisteria Sector 77Noida, Sector 77, Noida, Delhi NCR",144.9287424,28.5715378443018,77.3896222832981,3,3,3.0,2.0,Flat,720.9559558008004
517000.0,"house number 218 HUDA Plots Gate 14 Yoga Park sector 56 gurgaon, Sector 56 Block E, Gurgaon, Delhi NCR",418.06368,28.497467041015625,77.02713012695312,3,3,2.0,2.0,Flat,1236.6010843132797
93500.0,"Krishna Nagar-Safdarjung Enclave, New Delhi - South, Delhi NCR",85.4707968,28.563751220703125,77.18978881835938,2,2,1.0,1.0,Flat,1093.9254517397924
33000.0,"C block, Mahavir Enclave Part 3, New Delhi - Dwarka, Delhi NCR",62.2450368,28.606044,77.070474,2,2,2.0,1.0,Flat,530.0902962917037
330000.0,"Block C, Sushant Lok 2, Gurgaon, Delhi NCR",371.61216,28.42304992675781,77.08740997314453,4,4,4.0,1.0,Individual House,888.022609378552
25850.0,"DLF Dilshad extension 2 Ghaziabad, DLF Dilshad Extention II, Ghaziabad, Delhi NCR",65.9611584,28.63630485534668,77.43389892578125,2,2,1.0,1.0,Flat,391.7955752578172
165000.0,"Al/277 2nd floor with roof right, Sushant Lok 2, Gurgaon, Delhi NCR",167.22547200000002,28.42304992675781,77.08740997314453,3,3,2.0,1.0,Flat,986.6523205268632
85800.0,"Sector 79, Gurgaon, Sector 79, Gurgaon, Delhi NCR",120.3094368,28.35911846,76.975628,2,2,4.0,1.0,Individual House,713.1413568382692
157300.0,"first floor orchid island sector 51 gurgaon, Sector 51, Gurgaon, Delhi NCR",153.290016,28.429071,77.068974,4,4,2.0,1.0,Flat,1026.0805243832708
58300.0,"G T Road, Ghaziabad, G T Road, Ghaziabad, Delhi NCR",104.51592,28.679009,77.3492951427093,2,2,2.0,1.0,Flat,557.7966017043144
28600.0,"Raj Nagar Extension, Ghaziabad, Delhi NCR",74.322432,28.7045152890992,77.4192455317336,2,2,2.0,1.0,Flat,384.80979739737256
121000.0,"Vasundhara Enclave, New Delhi - East, Delhi NCR",130.064256,28.5982193809278,77.3118266563848,3,2,2.0,2.0,Flat,930.292485584971
93500.0,"368 subhash Nagar., Subhash Nagar, New Delhi - West, Delhi NCR",83.61273600000001,28.74278450012207,77.13809204101562,2,2,2.0,1.0,Individual House,1118.1980697294728
187000.0,"DLF City Phase 1, DLF City Phase 2, Gurgaon, Delhi NCR",199.741536,28.43108,77.055414,3,3,2.0,1.0,Flat,936.0942332995776
156200.0,"Dwarka Sector 23, New Delhi, Sector 23 Dwarka, New Delhi - Dwarka, Delhi NCR",171.87062400000002,28.5632906171692,77.0506741434345,3,3,3.0,2.0,Flat,908.7431369307184
60500.0,"Homes Sai Ram Apartments, Sector 28 Dwarka, New Delhi - Dwarka, Delhi NCR",111.483648,28.634742736816406,77.04914855957031,3,2,2.0,1.0,Flat,542.6410158375871
37400.0,"gali no 3, Mahavir Enclave Part 1, New Delhi - Dwarka, Delhi NCR",55.741824,28.59803581237793,77.07652282714844,2,2,1.0,1.0,Flat,670.8714806318501
79200.0,"Flat No. G4 Building No . J1/13  Gupta Coloney, Khirki Extension Near Malviya Nagar New Delhi 110017, Khirki extension, New Delhi - South, Delhi NCR",116.1288,28.49677085876465,77.22854614257812,3,2,2.0,1.0,Flat,682.001364002728
95700.0,"Sector 77, Gurgaon, Sector 77, Gurgaon, Delhi NCR",134.709408,28.387426,76.979751,3,3,3.0,2.0,Flat,710.4180875028417
101200.0,"Sector 70A, Gurgaon, Delhi NCR",131.9223168,28.385432,77.017122,2,2,3.0,1.0,Flat,767.0147284739013
41800.0,"Migsun Ultimo Greater Noida, Omicron 3, Greater Noida, Delhi NCR",93.3675552,28.474501,77.553187,2,2,1.0,2.0,Flat,447.681798141374
467500.0,"Sector 30 gurgaon, Sector 30, Gurgaon, Delhi NCR",418.06368,28.46195602416992,77.05679321289062,3,5,4.0,2.0,Flat,1118.1980697294728
71500.0,"Noida Extension, Greater Noida, Delhi NCR",150.50292480000002,28.605958,77.444512,3,3,3.0,1.0,Flat,475.0328945102334
84150.0,"6, Vaibhav Khand, Indirapuram, Indirapuram, Ghaziabad, Delhi NCR",108.51075072,28.641073,77.368012,3,2,3.0,1.0,Flat,775.4213425093517
49500.0,"Sector 133, Noida, Delhi NCR",102.84366528,28.5051230169232,77.371256,2,2,4.0,1.0,Individual House,481.3082542831752
93500.0,"Eldeco green meadows, Sector-Pi, Greater Noida, Delhi NCR",140.2835904,28.4706451115093,77.5373190779192,3,3,2.0,1.0,Flat,666.4905690922492
258500.0,"Pocket-C, Block-8, Sector-17, Near Axis Bank, Dwarka, New Delhi, Dwarka, New Delhi - Dwarka, Delhi NCR",167.22547200000002,28.63479232788086,77.04915618896484,4,3,2.0,2.0,Individual House,1545.7513553915994
49500.0,"Omicron I, 130 Meter Road, Greater Noida, Uttar Pradesh 201310, Omicron 1, Greater Noida, Delhi NCR",88.7224032,28.4626703284033,77.5583025174588,2,2,2.0,1.0,Flat,557.9150047188983
69080.0,"Noida Extension, Noida, Delhi NCR",139.35456000000002,28.605958,77.444512,3,3,2.0,1.0,Flat,495.63501904781583
152899.989,"Sector 28, Gurgaon, Delhi NCR",191.3802624,28.47474670410156,77.08303833007812,3,3,2.0,1.0,Flat,798.8651393969454
90200.0,"Sector 78, Noida, Sector 78, Noida, Delhi NCR",143.99971200000002,28.563989,77.388607,3,3,5.0,1.0,Flat,626.3519471483387
144100.0,"26/165 3rd Floor with Terrace 125 sq. yds., Vikram Vihar, New Delhi - South, Delhi NCR",111.483648,28.564363,77.2368819,2,2,2.0,1.0,Flat,1292.4873071968364
110000.0,"601, GPL Eden Height, Sector 70, Gurgaon, Delhi NCR",116.1288,28.3930662,77.022442,2,2,3.0,1.0,Flat,947.2241166704556
71500.0,"A2 ff., Sector 49, Gurgaon, Delhi NCR",97.548192,28.412766,77.052239,2,2,3.0,1.0,Flat,732.9146602737649
49500.0,"Noida Extension, Noida, Delhi NCR",98.0127072,28.605958,77.444512,2,2,2.0,1.0,Flat,504.9888571999366
159500.0,"Green Home CGHS Plot No 4 Sector 52 Gurgaon, Sector 52, Gurgaon, Delhi NCR",185.80608,28.438262,77.0793005,3,4,2.0,1.0,Individual House,858.4218557326003
44000.0,"Ratan Park, New Delhi - West, Delhi NCR",47.3805504,28.654545,77.1337505,2,2,2.0,1.0,Flat,928.6348433807976
220000.0,"Puri Diplomatic Green, C2-902, Phase I, Sector 111, Gurgaon, Sector 111, Gurgaon, Delhi NCR",207.82410048000003,28.5194705,77.027282,3,3,3.0,2.0,Individual House,1058.522950379234
34100.0,"Yamuna Expressway, Greater Noida, Yamuna Expressway, Greater Noida, Delhi NCR",90.580464,28.3251961394855,77.535202,2,2,3.0,1.0,Flat,376.4031833619223
52800.0,"Greater Noida West, Greater Noida., Greater Noida West, Greater Noida, Delhi NCR",115.6642848,28.606945,77.455578568448,3,2,4.0,1.0,Flat,456.4436212205758
73700.0,"3997., Aravali Vihar, Faridabad, Delhi NCR",116.1288,28.3964215,77.2714966,3,3,2.0,2.0,Flat,634.6401581692052
137500.0,"Sector 71, Gurgaon, Delhi NCR",215.5350528,28.4087675,77.0228914,3,3,2.0,1.0,Flat,637.8370395629679
297000.0,"156., Chittaranjan Park, New Delhi - South, Delhi NCR",204.386688,28.537872314453125,77.24923706054688,4,4,2.0,1.0,Flat,1453.0417949724786
126500.0,"Sector 82, Sector Road, Sector 82, Gurgaon, Delhi NCR",213.676992,28.395841,76.962664,3,4,2.0,1.0,Flat,592.0150729190347
99000.0,"Villa no281 panchsheel green2 Noida Extension, Noida Extension, Noida, Delhi NCR",160.72225920000002,28.561384201049805,77.31790161132812,4,3,3.0,1.0,Flat,615.9324818649637
49500.0,"Vasundhara Ghaziabad, Sector 5 Vasundhara, Ghaziabad, Delhi NCR",116.1288,28.636194229125977,77.43363952636719,3,3,3.0,1.0,Flat,426.25085250170497
32890.0,"Wave City, Ghaziabad, Delhi NCR",78.0385536,28.664371,77.488789,2,2,2.0,1.0,Flat,421.3963289037689
68200.0,"F-6, Alokvihar 2., Sector 50, Noida, Delhi NCR",120.773952,28.5740724193774,77.3716206325477,3,3,3.0,1.0,Flat,564.6639765501753
104500.0,"C Block Top Floor, Sector 82, Faridabad, Delhi NCR",202.90023936,28.3970475678259,77.356850157127,4,4,4.0,1.0,Individual House,514.9347104249764
159500.0,"Nirvana Country, Gurgaon, Delhi NCR",190.451232,28.407882,77.060044,3,3,2.0,2.0,Flat,837.4645221512665
137500.0,"Sector 45, Gurgaon, Delhi NCR",153.290016,28.4446575,77.0670365,3,3,2.0,1.0,Individual House,896.9028354723374
82500.0,"Q 086., Sector 143, Noida, Delhi NCR",138.8900448,28.502597,77.428742,3,2,3.0,1.0,Flat,593.9095211523756
132000.0,"Sector 79, Noida, Delhi NCR",160.72225920000002,28.5645864521315,77.3987635071892,3,3,2.0,1.0,Flat,821.2433091532848
60500.0,"neqr arjungarh metro station, Aya Nagar, New Delhi - South, Delhi NCR",102.193344,28.470691680908203,77.12744903564453,3,3,1.0,1.0,Flat,592.0150729190347
47300.0,"Shalimar garden extension Ghaziabad, Shalimar Garden Extension 2, Ghaziabad, Delhi NCR",116.1288,28.6356143951416,77.43213653564453,3,2,1.0,1.0,Individual House,407.3063701682959
52800.0,"Phase 2, Industrial Area, Sector 62, Noida, Uttar Pradesh, Sector 62, Noida, Delhi NCR",97.548192,28.6160298639118,77.371214419258,2,2,2.0,1.0,Individual House,541.2201796625815
165000.0,"Mayur Vihar 1, New Delhi - East, Delhi NCR",125.419104,28.6113012527664,77.2888916483984,3,3,2.0,1.0,Flat,1315.575895040679
143000.0,"Sector 137, Noida, Sector 137, Noida, Delhi NCR",211.354416,28.5118341904421,77.4112736653187,4,4,4.0,1.0,Flat,676.5548253318728
71500.0,"Sikka Karnam Greens sector 143B Noida, Sector 143 B, Noida, Delhi NCR",106.838496,28.495486,77.25219,2,3,3.0,1.0,Flat,669.2138384276768
165000.0,"D block, Ardee City, Ardee City, Gurgaon, Delhi NCR",209.03184,28.44207,77.075517,4,4,2.0,2.0,Flat,789.274495215657
34650.0,"Bhopura Ghaziabad, Bhopura, Ghaziabad, Delhi NCR",97.548192,28.7264530405965,77.3373385265705,2,2,2.0,1.0,Flat,355.20904375142084
137500.0,"A1701., Sector 92, Gurgaon, Delhi NCR",196.9544448,28.4096109,76.9141943,3,3,3.0,1.0,Flat,698.1041739861256
45100.0,"Greater Noida West, Greater Noida, Delhi NCR",110.0901024,28.597324,77.441425,4,2,2.0,1.0,Flat,409.55602744538817
396000.0,"House no.17, Block 3, Charmwood Village, Faridabad, Delhi NCR",343.74124800000004,28.4923586,77.2894914,6,6,4.0,2.0,Flat,1151.9429288858578
56100.0,"Sector 107, Gurgaon, Sector 107, Gurgaon, Delhi NCR",97.548192,28.5054485,76.9718027,3,2,2.0,1.0,Flat,575.0834418335503
49500.0,"D4/22, vashist park, new delhi, 110046, Vashisth Park, New Delhi - West, Delhi NCR",74.322432,28.63474464416504,77.04913330078125,2,2,2.0,1.0,Flat,666.016957033914
147400.0,"C02 Spaze Privy Sector 72 Gurgaon, Sector 72, Gurgaon, Delhi NCR",163.04483520000002,28.4101131446713,77.0334304975182,2,3,2.0,2.0,Flat,904.007016347366
121000.0,"House No 298 Sec 7A Faridabad, Sector 7A, Faridabad, Delhi NCR",167.22547200000002,28.34584617614746,77.32615661621094,4,2,1.0,2.0,Flat,723.560822121644
57750.0,"Sultanpur, Sector 128, Noida, Uttar Pradesh 201304, Sector 129, Noida, Delhi NCR",142.6061664,28.524543,77.364765,3,3,2.0,1.0,Flat,404.9383098766197
159500.0,"Sector 104, Gurgaon, Sector 104, Gurgaon, Delhi NCR",215.90666496,28.48438996,77.00030461,4,5,4.0,1.0,Flat,738.7164079883714
35200.0,"Najafgarh, New Delhi - West, Delhi NCR",69.67728000000001,28.68643951416016,77.29956817626953,2,2,1.0,1.0,Flat,505.1072602145204
105600.0,"paras dews  sector106on dwarka expressway gurgaon, Sector 106, Gurgaon, Delhi NCR",163.50935040000002,28.499602,76.999946,3,4,3.0,2.0,Flat,645.7700415400831
110000.0,"Sector 89, Gurgaon, Sector 89, Gurgaon, Delhi NCR",163.9738656,28.424505,76.9418971009322,3,3,3.0,1.0,Flat,670.7530776172663
53350.0,"Sainik Nagar, New Delhi - West, Delhi NCR",101.2643136,28.634746551513672,77.04913330078125,3,2,2.0,1.0,Flat,526.775011883357
93500.0,"Techzone IV Greater NoidaWest, Greater Noida, Delhi NCR",157.4706528,28.599573135375977,77.45030212402344,3,4,5.0,1.0,Flat,593.672715123208
107800.0,"Sector 70, Gurgaon, Sector 70, Gurgaon, Delhi NCR",133.50166848,28.395680754374,77.0297919921106,3,3,1.0,1.0,Flat,807.3901564469795
71500.0,"Supertech eccociti Sector 137Noida, Sector 137, Noida, Delhi NCR",120.3094368,28.5118341904421,77.4112736653187,3,2,3.0,1.0,Individual House,594.2647301961271
73700.0,"Ajnara Daffodil Sector 137 Noida, Sector 137, Noida, Delhi NCR",118.63718208,28.508273,77.4089761622089,2,2,3.0,1.0,Flat,621.1422145066513
121000.0,"Sector 48, Gurgaon, Sector 48, Gurgaon, Delhi NCR",139.35456000000002,28.4196316903118,77.1051973969524,3,3,2.0,1.0,Individual House,868.2493059430562
66000.0,"West Vinod Nagar, New Delhi - East, Delhi NCR",88.25788800000001,28.62456321716309,77.30006408691406,2,2,1.0,1.0,Flat,747.7150370967407
198000.0,"Flat no. 801 in block D2B at 8th Floor in Pocket 2 Sector 18 B Dwarka Phase -2, New Delhi, Delhi NCR",204.386688,28.634740829467773,77.04913330078125,3,2,4.0,1.0,Individual House,968.6550623101244
88000.0,"Awho gurjinder vihar., Chi 2, Greater Noida, Delhi NCR",185.80608,28.4422095,77.5103249,3,3,2.0,1.0,Flat,473.6120583352277
82500.0,"REHAZA VEDANTHA SEC 108 Gurgaon, Sector 108, Gurgaon, Delhi NCR",130.80748032,28.512136,76.986899,2,2,2.0,1.0,Individual House,630.6144556733557
45100.0,"Greater Noida West, Greater Noida, Delhi NCR",96.1546464,28.603156,77.450278,2,2,1.0,1.0,Flat,468.9943407664592
49390.0,"Siddhartha Vihar, Ghaziabad, Delhi NCR",105.4449504,28.644056,77.393639,2,2,4.0,1.0,Flat,468.28392267895646
121000.0,"H0805, Raheja Atharva, Sec-109, Dwarka Expressway Gurugram, Dwarka Expressway, Gurgaon, Delhi NCR",181.53254016,28.497459411621094,77.02709197998047,3,3,4.0,2.0,Flat,666.4905690922492
88000.0,"Mahagun Moderne Sector 78 Noida, Sector 78, Noida, Delhi NCR",119.8449216,28.562957,77.3869878873777,2,2,3.0,1.0,Individual House,734.2170934341868
44000.0,"G T Road, Ghaziabad, Delhi NCR",111.483648,28.6761797963942,77.3962820106621,2,2,2.0,1.0,Flat,394.6372476078285
71500.0,"T1/705., Sector 150, Noida, Delhi NCR",102.193344,28.420393,77.483477,2,2,2.0,1.0,Flat,699.6434131757152
55000.0,"Sector 137, Noida, Delhi NCR",119.3804064,28.505584,77.410762,3,2,3.0,1.0,Flat,460.7061297455928
69300.0,"NH 58 -Ghaziabad, NH 58, Ghaziabad, Delhi NCR",134.15198976000002,28.698376,77.426802,3,2,3.0,1.0,Flat,516.4739496145659
71500.0,"omicorn 3, Omicron, Greater Noida, Delhi NCR",174.19320000000002,28.4751606,77.55141449,3,3,2.0,1.0,Flat,410.3848485474748
159500.0,"Hari Nagar, New Delhi - West, Delhi NCR",139.35456000000002,28.6197013764725,77.111622131724,3,2,2.0,2.0,Flat,1144.4835389670775
107800.0,"Sunworld vanalika Sector 107Noida, Sector 107, Noida, Delhi NCR",160.72225920000002,28.5500058156014,77.3758201622555,3,3,3.0,1.0,Individual House,670.6346746026825
82500.0,"Crossings Republik, Ghaziabad, Delhi NCR",157.00613760000002,28.6260159438512,77.4358818168388,3,3,3.0,1.0,Flat,525.3541757083514
99000.0,"Sector 75, Noida, Delhi NCR",209.03184,28.574226,77.379658,4,4,4.0,1.0,Flat,473.6120583352277
87230.0,"Sector 77, Noida, Delhi NCR",128.67071040000002,28.5715378443018,77.3896222832981,3,3,2.0,1.0,Flat,677.8572584922947
140800.0,"Sector 77, Gurgaon, Delhi NCR",188.128656,28.387227,76.980183,3,3,2.0,1.0,Flat,748.3070521696598
66000.0,"Chudi wali gali mandir wali gali near metro pillar 215., Ranjeet Nagar, New Delhi - West, Delhi NCR",71.99985600000001,28.74281120300293,77.13806915283203,3,2,1.0,1.0,Flat,916.5577358932496
159500.0,"Kabirdas Marg, Rohit Kunj, Shakurpur Village, Pitam Pura, Delhi, 110034, Pitampura, New Delhi - West, Delhi NCR",130.064256,28.6901611564381,77.1407243812481,3,2,2.0,1.0,Flat,1226.3000220444883
154000.0,"236, GF & FF, Krishna Nagar, Ram Nagar, Delhi 110051, Krishna Nagar Block H, New Delhi - East, Delhi NCR",190.451232,28.6572035,77.2843935,4,3,1.0,1.0,Flat,808.5741865928176
53900.0,"D3-203A, 3rd floor back side, Mahavir Enclave, New Delhi - Dwarka, Delhi NCR",65.032128,28.63486099243164,77.04925537109375,2,2,1.0,1.0,Flat,828.8211020866486
48400.0,"Sector 3 Rajendra Nagar, Ghaziabad, Delhi NCR",106.838496,28.68898200988769,77.36444854736328,3,2,2.0,1.0,Flat,453.0099337976453
159500.0,"2021 Sector 28, Mathura Road, Faridabad, Delhi NCR",265.70269440000004,28.433361,77.309171,4,4,2.0,3.0,Flat,600.1848809253173
33000.0,"Greater Noida West, Noida, Delhi NCR",83.51983296,28.605958,77.444512,2,2,2.0,1.0,Flat,395.1108596661638
42900.0,"Raj Nagar Extension Ghaziabad, Raj Nagar Extension, Ghaziabad, Delhi NCR",90.67336704,28.7040534,77.4373305,2,2,2.0,1.0,Flat,473.0200432623087
126500.0,"Sector 107, Noida, Sector 107, Noida, Delhi NCR",153.01130688,28.542912592576,77.37203148936,3,3,3.0,2.0,Flat,826.68984782414
63799.99999999999,"Sector 16 Rohini, New Delhi - Rohini, Delhi NCR",65.032128,28.73837280273437,77.12914276123047,2,2,2.0,1.0,Flat,980.9689758268404
176000.0,"Sector 56, Gurgaon, Delhi NCR",204.386688,28.4281519262555,77.1008893272678,3,2,2.0,1.0,Flat,861.0267220534439
110000.0,"Sushant Lok 1, Gurgaon, Delhi NCR",92.34562176,28.454191,77.0837996,2,2,2.0,1.0,Individual House,1191.1343267130978
88000.0,"Chi 4, Greater Noida, Chi 4, Greater Noida, Delhi NCR",158.86419840000002,28.4329494549295,77.517838,3,3,3.0,2.0,Flat,553.8893022230488
154000.0,"Mayur Vihar 1, New Delhi - East, Delhi NCR",130.064256,28.6053661,77.2954371,3,3,2.0,1.0,Flat,1184.0301458380693
88000.0,"Niti khand 1, Indirapuram, Ghaziabad, Delhi NCR",120.773952,28.6493479,77.3696259,3,2,1.0,1.0,Flat,728.533748734164
65009.99999999999,"Sector 88, Faridabad, Delhi NCR",139.35456000000002,28.421008,77.3559275,3,3,2.0,1.0,Flat,466.5078774601994
38500.0,"Palm Residency, Sector-75 Faridabad, Sector 75, Faridabad, Delhi NCR",115.1997696,28.3716165755856,77.3510179129609,2,2,2.0,1.0,Flat,334.1333071555032
123200.0,"Antriksh Forest Sector  77 Noida, Sector 77, Noida, Delhi NCR",173.72868480000002,28.5680204,77.3890864,3,4,3.0,1.0,Flat,709.1156543424197
94600.0,"Sector 70 Gurgaon, Sector 70, Gurgaon, Delhi NCR",105.63075648,28.395680754374,77.0297919921106,3,2,2.0,2.0,Individual House,895.4819992973319
149600.0,"DDA SEC19B DWARKA NEW DELHI, Sector 19 Dwarka, New Delhi - Dwarka, Delhi NCR",130.064256,28.5769715,77.0477254,2,2,2.0,2.0,Flat,1150.1668836671006
242000.0,"B-23., Shivalik Colony, New Delhi - South, Delhi NCR",167.22547200000002,28.5344181060791,77.20816040039062,3,3,2.0,1.0,Flat,1447.121644243288
121000.0,"Indirapuram Ghaziabad, Indirapuram, Ghaziabad, Delhi NCR",204.386688,28.633405685424805,77.43122100830078,3,4,3.0,2.0,Flat,592.0150729190347
88000.0,"Sector 37C, Gurgaon, Sector 37C, Gurgaon, Delhi NCR",171.59191488000002,28.44926,76.98476024,4,3,3.0,1.0,Flat,512.8034561624678
61050.0,"Sector 36, Gurgaon, Delhi NCR",100.42818624,28.41831970214844,76.98768615722656,3,3,2.0,1.0,Flat,607.8810768732648
30800.0,"Gurgaon, Dharam Colony Block E, Gurgaon, Delhi NCR",66.8901888,28.50288772583008,77.03587341308594,2,2,1.0,1.0,Flat,460.3509207018414
60500.0,"416 Shaktikhand 4 ground floor, Indirapuram, Ghaziabad, Delhi NCR, Indirapuram, Ghaziabad, Delhi NCR",102.193344,28.6493479,77.3696259,3,2,2.0,1.0,Flat,592.0150729190347
60500.0,"Tuntex Tower, Sector 86, Faridabad, Delhi NCR",146.322288,28.404368478163,77.3360770274415,3,3,3.0,1.0,Flat,413.4633269266538
88000.0,"Panchachuli Apartments, Sector 61, Noida, Uttar Pradesh, Sector 61, Noida, Delhi NCR",126.8126496,28.5964690540065,77.367227,3,2,2.0,1.0,Individual House,693.8416654611086
193600.0,"PH 3 OC15 orange county ahinsa khand 1 Indirapuram, Indirapuram, Ghaziabad, Delhi NCR",233.27953344,28.6419128697097,77.361427371387,4,3,2.0,1.0,Flat,829.8867292179027
38500.0,"Nt 10west uttam nagar, Uttam Nagar, New Delhi - West, Delhi NCR",75.25146240000001,28.63477325439453,77.04914093017578,3,2,1.0,1.0,Flat,511.501023002046
62260.0,"9., Sector 143 B, Noida, Delhi NCR",120.773952,28.4959545,77.4233,3,3,3.0,1.0,Individual House,515.4083224833116
132000.0,"Sector 104, Gurgaon, Delhi NCR",143.99971200000002,28.482277,76.99199526,2,2,2.0,1.0,Flat,916.5577358932496
390500.0,"Sector 150, Noida, Sector 150, Noida, Delhi NCR",427.353984,28.561989,77.39837,6,3,3.0,2.0,Flat,913.7160635432382
41470.0,"Siddhartha Vihar, Ghaziabad, Delhi NCR",98.0127072,28.656401,77.405491,2,2,2.0,1.0,Flat,423.0539711079422
108460.0,"Sector 107, Noida, Delhi NCR",160.72225920000002,28.5500058156014,77.3758201622555,3,3,2.0,1.0,Flat,674.7787801131157
211200.0,"Sector 109, Gurgaon, Delhi NCR",244.3349952,28.51083403,77.003159,4,4,2.0,1.0,Individual House,864.3420064617906
88220.0,"Vaishali, Ghaziabad, Delhi NCR",140.7481056,28.645769,77.38511,3,3,5.0,1.0,Individual House,626.7071561920901
75570.0,"Sector 150, Noida, Delhi NCR",130.43586816,28.417942,77.487508,3,3,2.0,1.0,Flat,579.3459503585674
97900.0,"Siddhartha Vihar, Ghaziabad, Delhi NCR",176.05126080000002,28.65662,77.4048,3,3,2.0,1.0,Flat,556.0205564855573
176000.0,"Sector 90, Gurgaon, Delhi NCR",204.386688,28.407361,76.93426176,4,4,2.0,1.0,Flat,861.0267220534439
423500.0,"Sector 81, Gurgaon, Delhi NCR",416.76303744,28.3884743,76.9470835,4,4,4.0,1.0,Flat,1016.1346711582312
93500.0,"Indirapuram, Ghaziabad, Delhi NCR",100.3352832,28.6493479,77.3696259,2,2,2.0,1.0,Individual House,931.8317247745604
174900.0,"Indirapuram, Ghaziabad, Delhi NCR",203.4576576,28.6493479,77.3696259,3,3,2.0,2.0,Flat,859.6058858784384
90530.0,"Chi 5, Greater Noida, Delhi NCR",160.257744,28.4301942655176,77.5061330784878,3,3,2.0,1.0,Flat,564.900782579343
40150.0,"Siddhartha Vihar, Ghaziabad, Delhi NCR",71.5353408,28.6390982,77.412377,2,2,2.0,1.0,Flat,561.2302891272448
372900.0,"Sector 78, Noida, Delhi NCR",350.708976,28.5627524499332,77.3824170842337,5,4,2.0,1.0,Flat,1063.2590709625863
250800.0,"Sector 99, Gurgaon, Delhi NCR",255.48336,28.40178968,77.04549474,3,5,2.0,1.0,Individual House,981.5609908997596
385000.0,"Sector 121, Noida, Delhi NCR",413.8830432,28.603194,77.402604,4,5,2.0,1.0,Flat,930.1740825703872
346500.0,"Sector 81, Gurgaon, Delhi NCR",390.192768,28.39284,76.951139,4,5,2.0,1.0,Flat,888.022609378552
220000.0,"Suraj Kund, Faridabad, Delhi NCR",249.44466240000003,28.469312,77.293483,3,3,2.0,1.0,Individual House,881.865652620194
141900.0,"Sector 108, Gurgaon, Delhi NCR",186.08478912,28.513929,76.988788,3,3,2.0,1.0,Flat,762.5154139197166
95590.0,"Vasundhara sector 15 ghaziabad., Sector 15 Vasundhara, Ghaziabad, Delhi NCR",160.257744,28.6524441,77.3605216,4,3,2.0,1.0,Flat,596.3959844586356
60500.0,"NH 24, Ghaziabad, Delhi NCR",116.1288,28.638572,77.4308515,4,3,2.0,1.0,Flat,520.9732641687505
36300.0,"Sector 2, Greater Noida, Delhi NCR",79.43209920000001,28.5814311,77.4528192,2,2,2.0,1.0,Flat,456.9172332789109
48400.0,"noida sec-16, Greater Noida West, Noida, Delhi NCR",137.03198400000002,28.605958,77.444512,3,3,2.0,1.0,Flat,353.19619250349604
126500.0,"M-1802., Sector 45, Noida, Delhi NCR",157.935168,28.548787,77.346032,4,4,4.0,1.0,Flat,800.8779906448701
77000.0,"Indraprastha Colony, Faridabad, Delhi NCR",120.773952,28.4524215,77.317156,3,2,2.0,1.0,Flat,637.4818305192165
170500.0,"Sector 38, Gurgaon, Delhi NCR",185.80608,28.43741226196289,77.04144287109375,3,2,1.0,1.0,Flat,917.6233630245038
82500.0,"Sector 37C, Gurgaon, Delhi NCR",126.8126496,28.449908,76.9876925,2,2,2.0,1.0,Flat,650.5061621234353
79200.0,"Sector-77, Noida., Sector 77, Noida, Delhi NCR",120.3094368,28.5720422763446,77.3910687279008,2,2,4.0,1.0,Flat,658.2023580713827
181500.0,"Sector 81, gurugram, haryana., Sector 81A, Gurgaon, Delhi NCR",195.37509312,28.389485,76.954056,3,4,5.0,3.0,Flat,928.8716494099656
77000.0,"Sector 62, Noida, Delhi NCR",111.483648,28.621714,77.369341,3,2,2.0,1.0,Individual House,690.6447840673459
85800.0,"Sector 70, Gurgaon Haryana, Sector 70, Gurgaon, Delhi NCR",125.419104,28.394708,77.01856,2,2,1.0,1.0,Flat,684.0142152506527
36410.0,"Sector 53, Noida, Delhi NCR",88.25788800000001,28.5905383,77.35981,2,2,2.0,1.0,Flat,412.51610280998335
187000.0,"Malibu Town, Gurgaon, Delhi NCR",250.838208,28.42242813110352,77.04646301269531,3,3,2.0,1.0,Flat,745.4653798196484
33000.0,"Sector 2 Rajendra Nagar, Ghaziabad, Delhi NCR",54.06956928,28.687614,77.351924,2,2,2.0,1.0,Flat,610.249137164941
40700.0,"Greater Noida West, Greater Noida, Delhi NCR",98.4772224,28.605958,77.444512,2,2,2.0,1.0,Flat,413.22652089748624
115500.0,"Sector 83, Gurgaon, Sector 83, Gurgaon, Delhi NCR",171.87062400000002,28.395989,76.973879,3,3,4.0,1.0,Flat,671.9371077631043
27500.0,"DLF Ankur Vihar, Ghaziabad, Delhi NCR",74.322432,28.7379052,77.2673675,2,2,2.0,1.0,Individual House,370.0094205743967
71500.0,"Shakti Khand 2 Indirapuram Ghaziabad, Indirapuram, Ghaziabad, Delhi NCR",134.709408,28.647117614746094,77.37123107910156,3,2,1.0,1.0,Flat,530.6823113646227
110000.0,"J1170 Rajouri garden, Rajouri Garden Extension, New Delhi - West, Delhi NCR",130.064256,28.63360023498535,77.0987777709961,3,2,2.0,1.0,Flat,845.6343301575491
46750.0,"Pul Prahlad Pur, New Delhi - South, Delhi NCR",88.25788800000001,28.497529983520508,77.29054260253906,2,2,1.0,1.0,Flat,529.6166842333685
71500.0,"pilot no E 24 salimar garden ext 2 Ghaziyabad, Shalimar Garden Extension 2, Ghaziabad, Delhi NCR",153.290016,28.6857996101265,77.3414423841921,3,2,3.0,1.0,Flat,466.3894744456155
23100.0,"House no B 173 Mahindra enclave shashtri nagar Ghaziabad, Mahindra Enclave, Ghaziabad, Delhi NCR",65.032128,28.676050186157227,77.45023345947266,2,2,2.0,1.0,Flat,355.20904375142084
36300.0,"401., Gijhore, Noida, Delhi NCR",88.25788800000001,28.5903965,77.3626,2,2,1.0,1.0,Flat,411.2136696495616
41800.0,"Raj Nagar Extension, Ghaziabad, Delhi NCR",111.483648,28.7021394384081,77.4071258569451,2,2,2.0,1.0,Individual House,374.8639441723328
38500.0,"Shanti Nagar, Shanti Nagar, Gurgaon, Delhi NCR",83.61273600000001,28.455087661743164,77.01211547851562,2,2,1.0,1.0,Flat,460.3509207018414
423500.0,"Sector 107, Noida, Sector 107, Noida, Delhi NCR",399.4830720000001,28.5466684964452,77.3751950836512,5,5,10.0,2.0,Individual House,1060.0621895688237
51700.0,"Adarsh Nagar, Gurgaon, Delhi NCR",78.967584,28.465377807617188,77.02996063232422,2,2,2.0,2.0,Flat,654.6502676338686
45100.0,"Shipra Suncity, Ghaziabad, Delhi NCR",70.6063104,28.6358105,77.3739109,2,2,2.0,1.0,Flat,638.6658606650547
41800.0,"Sector 68, Gurgaon, Delhi NCR",58.52891520000001,28.474314,76.98599,2,2,2.0,1.0,Flat,714.0885809549396
48400.0,"Sahibabad, Ghaziabad, Delhi NCR",92.90304,28.6644882,77.3474938,3,3,2.0,1.0,Flat,520.9732641687505
36300.0,"Raj Nagar Extension, Ghaziabad, Delhi NCR",97.548192,28.7001920400432,77.427474,2,2,2.0,1.0,Flat,372.0222718223214
79200.0,"Raj Nagar Extension, Ghaziabad, Delhi NCR",138.8900448,28.7040534,77.4373305,3,3,2.0,1.0,Flat,570.2289182356142
36300.0,"Raj Nagar Extension, Ghaziabad, Delhi NCR",98.29141632,28.7040534,77.4373305,2,2,3.0,1.0,Flat,369.2990024868938
46200.0,"Sector 4, Greater Noida, Delhi NCR",109.161072,28.6109351,77.4294948,2,2,2.0,1.0,Flat,423.172374122526
143000.0,"C-2-799., Palam Vihar, Gurgaon, Delhi NCR",204.386688,28.50042532,77.00773017,4,4,2.0,1.0,Flat,699.6434131757152
71500.0,"Flat No 177, Second Floor with Terrace, Shakti Khand 3, Indirapuram, Shakti Khand 3, Ghaziabad, Delhi NCR",102.193344,28.6500637,77.3637503,3,2,2.0,3.0,Flat,699.6434131757152
60500.0,"Dayanand Colony, Gurgaon, Delhi NCR",90.39465792,28.472907,77.0210785,2,2,2.0,1.0,Flat,669.2138384276768
49500.0,"Raj Nagar Extension, Ghaziabad, Delhi NCR",143.99971200000002,28.7219988470787,77.447746,3,3,2.0,1.0,Flat,343.7239513367915
110000.0,"Sector 100, Noida, Sector 100, Noida, Delhi NCR",165.27450816,28.5434121846104,77.367853,3,3,4.0,1.0,Individual House,665.5433449755789
65009.99999999999,"Sector 2 Sohna, Gurgaon, Delhi NCR",112.4126784,28.27197877,77.06665731,2,2,2.0,1.0,Individual House,578.280323227313
143000.0,"Kaushambi, Ghaziabad, Delhi NCR",171.87062400000002,28.6420559,77.323499,3,3,2.0,1.0,Flat,832.0179834804113
82500.0,"Ghaziabad, Shakti Khand 3, Ghaziabad, Delhi NCR",120.773952,28.65005874633789,77.36593627929688,3,3,1.0,1.0,Individual House,683.0669911339822
48950.0,"Gyan Khand 1 Indirapuram Ghaziabad, Indirapuram, Ghaziabad, Delhi NCR",91.9740096,28.64032554626465,77.35135650634766,2,2,1.0,1.0,Individual House,532.1031475396284
53900.0,"B block, Freedom Fighters Enclave, New Delhi - South, Delhi NCR",88.25788800000001,28.5112245450823,77.2027270928168,2,2,2.0,2.0,Flat,610.6043462086924
214500.0,"Chittaranjan Park, New Delhi - South, Delhi NCR",148.644864,28.537872314453125,77.24923706054688,3,3,2.0,1.0,Flat,1442.977538732855
132000.0,"sector 3 vaishali, skytech magadh society, Vaishali, Ghaziabad, Delhi NCR",185.80608,28.6402742518961,77.3433211933865,3,3,5.0,1.0,Individual House,710.4180875028417
29700.0,"Pratap vihar ghaziabad, Vijay Nagar Colony, Ghaziabad, Delhi NCR",78.967584,28.64338493347168,77.42422485351562,2,2,1.0,1.0,Flat,376.0479743181708
176000.0,"Brand new stilt lift gated block, DLF City Phase 2, Gurgaon, Delhi NCR",157.935168,28.4827938079834,77.0829086303711,3,3,2.0,2.0,Flat,1114.290770248207
107800.0,"Indirapuram, Ghaziabad, Delhi NCR",171.87062400000002,28.6493479,77.3696259,4,3,2.0,1.0,Flat,627.1807682504253
39600.0,"Plot no 36, Flat no. S-3, Sector 5 Rajendra Nagar, Ghaziabad, Delhi NCR",83.61273600000001,28.6809994,77.356998,2,2,2.0,1.0,Flat,473.6120583352277
68200.0,"Sector 78, Noida, Sector 78, Noida, Delhi NCR",129.1352256,28.56118695507,77.3865691983336,3,3,3.0,1.0,Flat,528.077445043779
29700.0,"B-6, 2006., Amrapali Dream Valley, Greater Noida, Delhi NCR",74.7869472,28.5968074798584,77.44292449951172,2,2,2.0,1.0,Flat,397.12371091408846
88000.0,"Yamuna Expressway, Greater Noida, Delhi NCR",158.3996832,28.3452278,77.5161987,3,2,2.0,1.0,Flat,555.5469444272221
35420.0,"Greater Noida West, Noida, Delhi NCR",85.4707968,28.60595893859864,77.44451141357422,2,2,2.0,1.0,Flat,414.4105510433243
42900.0,"Raj Nagar Extension, Ghaziabad, Raj Nagar Extension, Ghaziabad, Delhi NCR",104.51592,28.703725,77.415456,2,2,3.0,1.0,Flat,410.3848485474748
49500.0,"Noida-Greater Noida Link Rd, Sector-16B, Bhangel, Greater Noida, Uttar Pradesh, Sector 16, Greater Noida, Delhi NCR",102.6578592,28.6113,77.4454,2,2,3.0,2.0,Flat,482.1370753852619
52800.0,"Yamuna Expressway, Greater Noida, Delhi NCR",117.70815168,28.4334641747244,77.5060123922586,3,2,2.0,1.0,Flat,448.5106192434607
35200.0,"Sector 90, Gurgaon, Delhi NCR",64.1030976,28.405868,76.929915,2,2,2.0,1.0,Flat,549.0347786251127
29700.0,"Noida Extension, Greater Noida, Delhi NCR",82.68370560000001,28.604884,77.425914,2,2,2.0,1.0,Flat,359.11634323268646
275000.0,"sectorc15a noida, Sector 15A, Noida, Delhi NCR",209.03184,28.576414108276367,77.30426025390625,3,4,3.0,1.0,Flat,1315.575895040679
46200.0,"Yamuna Expressway, Greater Noida, Delhi NCR",117.9868608,28.309616,77.55859,2,2,2.0,1.0,Flat,391.5587692286496
28930.0,"Raj Nagar Extension, Ghaziabad, Delhi NCR",73.57920768000001,28.699069,77.4308221137806,2,2,2.0,1.0,Flat,393.0980084182391
49500.0,"Ahinsa Khand 2 Indirapuram Ghaziabad Uttar Pradesh, Ahinsa Khand 2, Ghaziabad, Delhi NCR",92.90304,28.63407325744629,77.43172454833984,2,2,1.0,1.0,Flat,532.8135656271312
66000.0,"Govindpuram, Ghaziabad, Delhi NCR",146.322288,28.6896453,77.4933302,3,2,2.0,1.0,Flat,450.99708254972063
132000.0,"Sector 45Noida Amrapali sapphire, Sector 45, Noida, Delhi NCR",152.36098560000002,28.548787,77.346032,3,3,3.0,1.0,Flat,866.3548577097154
214500.0,"Vasant Kunj, New Delhi, Sector B Vasant Kunj, New Delhi - South, Delhi NCR",148.644864,28.547435760498047,77.24966430664062,3,2,1.0,1.0,Flat,1442.977538732855
82500.0,"Sector 21, Gurgaon, Delhi NCR",105.9094656,28.513566,77.0733305,2,2,2.0,1.0,Flat,778.8550299322819
93500.0,"3282, ATS Dolce, Zeta-1, Greater Noida, Zeta 1, Greater Noida, Delhi NCR",167.22547200000002,28.496754,77.5222949538374,3,3,4.0,2.0,Flat,559.0990348647364
47300.0,"Shalimar Garden Extension 1, Ghaziabad, Delhi NCR",106.838496,28.6900486,77.3405361,2,2,1.0,1.0,Flat,442.7088715288541
148500.0,"DLF City Phase 3, Gurgaon, Delhi NCR",167.22547200000002,28.494107,77.1033555,5,4,3.0,1.0,Flat,888.022609378552
148500.0,"sadar bazaar delhi cant. 110010, Delhi Cantonment, New Delhi - South, Delhi NCR",134.709408,28.63479423522949,77.04908752441406,4,2,2.0,2.0,Individual House,1102.3320657752429
66000.0,"Abhay Khand, Ghaziabad, Delhi NCR",108.6965568,28.6370524,77.344619,2,3,2.0,1.0,Flat,607.170658785762
28490.0,"Flora enclave., Gangapuram, Ghaziabad, Delhi NCR",81.75467520000001,28.677553176879883,77.48741149902344,2,2,1.0,1.0,Flat,348.4600719201438
104500.0,"Sector 45, Noida, Sector 45, Noida, Delhi NCR",152.73259776,28.5465358119836,77.3526684550316,3,3,3.0,1.0,Flat,684.1326182652365
165000.0,"177., Arjun Nagar, New Delhi - South, Delhi NCR",125.419104,28.5604951,77.1986314,3,3,1.0,1.0,Flat,1315.575895040679
44000.0,"64 Daulat Pura, Rahul Vihar Near bhatiya more, Ghaziabad, Daulatpura, Ghaziabad, Delhi NCR",65.032128,28.65050506591797,77.43795776367188,2,2,1.0,1.0,Individual House,676.5548253318728
66110.0,"Uttam Nagar, New Delhi - West, Delhi NCR",104.51592,28.621288299560547,77.05307006835938,2,2,2.0,1.0,Flat,632.5089039066966
55000.0,"Gaur city 2, Noida Extension, Noida, Delhi NCR",113.806224,28.6199486805594,77.4227671285202,2,2,4.0,1.0,Flat,483.20270251651607
76450.0,"Uttam Nagar West, New Delhi - West, Delhi NCR",100.3352832,28.621767044067383,77.05584716796875,4,2,2.0,1.0,Individual House,761.9233988467976
49500.0,"Dwarka Mor, New Delhi - West, Delhi NCR",74.322432,28.61931610107422,77.03326416015625,3,2,2.0,2.0,Flat,666.016957033914
159500.0,"SECTOR - 109, GURUGRAM, HARYANA, Sector 109, Gurgaon, Delhi NCR",244.3349952,28.51083403,77.003159,4,4,2.0,1.0,Flat,652.7558194005277
59400.0,"14th Avenue, Noida, Delhi NCR",120.773952,28.532350540161133,77.40760040283203,3,2,3.0,1.0,Flat,491.7277195665502
148500.0,"P-11 Block Sector-48, Sector 48, Gurgaon, Delhi NCR",210.70409472,28.4104869253496,77.0384324627314,4,4,3.0,1.0,Flat,704.7347428028188
71500.0,"Sohna Road, Gurgaon, Delhi NCR",116.77912128,28.416558,77.022441,2,2,4.0,1.0,Flat,612.2619884128657
78100.0,"G T Road, Ghaziabad, Delhi NCR",157.00613760000002,28.679009,77.3492951427093,3,3,2.0,1.0,Individual House,497.4110642665729
88000.0,"Kaushambi, Ghaziabad, Delhi NCR",161.6512896,28.645141,77.323027,3,3,2.0,1.0,Flat,544.2986580417605
121000.0,"Sector 21 Surya Vihar-, Gurgaon, Delhi NCR",152.36098560000002,28.517671585083008,77.07597351074219,3,3,2.0,1.0,Individual House,794.1290188135931
50600.0,"Krishna Colony, Gurgaon, Delhi NCR",69.67728000000001,28.466155,77.010758,2,2,1.0,1.0,Flat,726.1656884424879
143000.0,"A-64 First Floor, Ramesh Nagar, New Delhi - West, Delhi NCR",104.51592,28.653175354003903,77.13507080078125,4,2,3.0,1.0,Flat,1368.1468335158893
69300.0,"Sector 78, Noida, Delhi NCR",129.1352256,28.56118695507,77.3865691983336,3,3,3.0,1.0,Flat,536.602462093813
121000.0,"Indirapuram, Ghaziabad, Delhi NCR",220.1802048,28.6350948892475,77.3635358006406,4,3,2.0,1.0,Flat,549.508390683448
57090.0,"Sec 168, Sector 168, Noida, Delhi NCR",100.7997984,28.49728592,77.40909126,2,2,3.0,1.0,Flat,566.3216187543486
49500.0,"Arihant ambience crossing republic ghaziabad, NH 24, Ghaziabad, Delhi NCR",117.0578304,28.6260159438512,77.4358818168388,2,2,2.0,1.0,Flat,422.81716507877456
33110.0,"Surajpur, Greater Noida, Delhi NCR",91.9740096,28.5151375,77.495836,2,2,1.0,1.0,Flat,359.94516433477304
27500.0,"Sector 76, Faridabad, Delhi NCR",92.90304,28.369786,77.358284,2,2,3.0,1.0,Flat,296.0075364595173
104500.0,"Sector 90, Gurgaon., Sector 90, Gurgaon, Delhi NCR",183.0189888,28.406891,76.930126,3,3,3.0,1.0,Flat,570.9393363231171
60500.0,"Flat no. 002, 1st floor, chandra Park, Dwarka near Vegas Mall, Dwarka Mor, New Delhi - West, Delhi NCR",102.193344,28.619316,77.033262,4,2,1.0,1.0,Individual House,592.0150729190347
209000.0,"Sector 57, Gurgaon, Delhi NCR",208.47442176,28.417357,77.076141,3,4,2.0,1.0,Individual House,1002.5183244810934
36079.989,"Omicron 3, Greater Noida, Delhi NCR",93.3675552,28.474501,77.553187,2,2,2.0,1.0,Individual House,386.349036586962
38940.0,"Govindpuram, Ghaziabad, Delhi NCR",95.225616,28.687809,77.478751,2,2,2.0,1.0,Flat,408.8456093578853
82059.989,"Sector 70, Noida, Delhi NCR",134.33779584,28.594127,77.381972327979,3,2,2.0,1.0,Flat,610.84115223786
430100.0,"x123, Sushant Lok 1, Gurgaon, Delhi NCR",343.74124800000004,28.454191,77.0837996,5,6,2.0,2.0,Flat,1251.1646551070878
44000.0,"flat no. 102, plot no. 102, Gyan Khand 1, Ghaziabad, Delhi NCR",83.61273600000001,28.64177894592285,77.35029602050781,2,2,2.0,1.0,Flat,526.182996810438
36300.0,"604., Raj Nagar Extension, Ghaziabad, Delhi NCR",97.91980416,28.7032437993963,77.4230703078806,2,2,2.0,1.0,Individual House,370.6014356473157
60500.0,"Ptrakar Vihar, Nyay Khand-|, Indirapuram, Ghaziabad. Pin-201014., Indirapuram, Ghaziabad, Delhi NCR",88.25788800000001,28.634123,77.353146,2,2,1.0,1.0,Flat,685.4350514256583
70400.0,"LBS Rd, behind Dena Bank, Kashi Nagar, Valmik Nagar, Bhandup West, Mumbai, Maharashtra, Neeti Khand 2, Ghaziabad, Delhi NCR",134.709408,28.64305305480957,77.34683227539062,3,3,1.0,1.0,Individual House,522.51250335834
81950.0,"Sector 89, Faridabad, Sector 89, Faridabad, Delhi NCR",155.1480768,28.4237892,77.3705248,3,3,3.0,2.0,Flat,528.1958480583627
