price,address,sqft_living,latitude,longitude,bedrooms,bathrooms,balcony,car_garage,type_of_building,price_sqft
61600.0,"Noida Extension, Noida, Delhi NCR",1350,28.60885,77.46056,3,3,,,Flat,4148
96800.0,"Sector 79, Gurgaon, Delhi NCR",1490,28.37423557,76.95241631,3,3,,,Flat,5906
181500.0,"Vaishali, Ghaziabad, Delhi NCR",2385,28.645769,77.38511,4,5,,1.0,Flat,6918
41910.0,"Link Road, F Block, Sector 50, Noida, Uttar Pradesh, Sector 1, Greater Noida, Delhi NCR",1050,28.566914,77.436434,2,2,3.0,1.0,Flat,3628
68200.0,"Jaypee Pavilion Court Sector 128, Noida, Sector 128, Noida, Delhi NCR",1350,28.520732,77.356491,2,2,3.0,1.0,Flat,4592
40700.0,"tower 2, 6th floor, Crossings Republik, Ghaziabad, Delhi NCR",1150,28.62804,77.437809,2,2,3.0,,Flat,3217
35970.0,"Nirala Aspire, GH03, Sector 16C, Hundal, Greater Noida, Uttar Pradesh 201306, Noida Extension Block C, Noida, Delhi NCR",890,28.610645,77.455837,2,2,3.0,1.0,Flat,3674
43890.0,"Suncity Avenue 102, Sector 102, Gurgaon Bang on Dwarka Expressway having all Facilities of a gated Society., Sector 102, Gurgaon, Delhi NCR",850,28.471233,76.969597,2,2,1.0,1.0,Flat,4694
38500.0,"Sector 2, Greater Noida, Sector 2, Greater Noida, Delhi NCR",960,28.5814311,77.4528192,2,2,2.0,,Flat,3645
60500.0,"Gaur City 5th Avenue, Noida Extension, Noida, Noida Extension, Noida, Delhi NCR",1400,28.614181,77.427713,3,3,4.0,1.0,Flat,3928
80300.0,"Sector 24 Rohini, New Delhi - Rohini, Delhi NCR",850,28.72407531738281,77.0955810546875,3,2,1.0,2.0,Flat,8588
84700.0,"Gurgaon - Faridabad Road, Gurgaon, Delhi NCR",1250,28.436305,77.13605,2,2,2.0,,Flat,6160
115500.0,"Sector 110A, Gurgaon, Chandan Vihar, Gurgaon, Delhi NCR",1615,28.513139724731445,77.02595520019531,3,3,3.0,,Flat,6501
79200.0,"H-024, Gulshan Vivante, Sector-137, Noida, Sector 137, Noida, Delhi NCR",1200,28.5074613813646,77.4078166697626,2,2,3.0,,Flat,6000
77000.0,"G T Road, Ghaziabad, Delhi NCR",1690,28.679009,77.3492951427093,3,3,,,Flat,4142
104500.0,"Sector 24 Rohini, New Delhi - Rohini, Delhi NCR",1000,28.721435546875,77.10701751708984,3,2,1.0,2.0,Individual House,9500
165000.0,"Sector 24 Rohini, New Delhi - Rohini, Delhi NCR",1450,28.72721290588379,77.09606170654297,4,3,1.0,2.0,Individual House,10344
52800.0,"Noida Extension, Noida, Delhi NCR",1175,28.616078045953845,77.42810224734058,2,2,,,Flat,4085
56100.0,"NeelPadam Kunj, Vaishali, Sector 1, Ghaziabad, Sector 1 Vaishali, Ghaziabad, Delhi NCR",1087,28.6443099975586,77.331787109375,2,2,2.0,1.0,Flat,4691
154000.0,"Sector 45, Noida, Sector 45, Noida, Delhi NCR",1845,28.5469297107013,77.3543872945106,3,3,3.0,2.0,Flat,7588
68750.0,"Sector 37C, Gurgaon, Delhi NCR",1400,28.449384,76.98441,2,2,2.0,,Flat,4464
95700.0,"Sushant Lok 2, Gurgaon, Delhi NCR",1600,28.423049,77.08741,3,2,1.0,,Flat,5437
143000.0,"Sector 29, Noida, Delhi NCR",1950,28.5697371550333,77.3324116681809,3,3,2.0,,Individual House,6666
165000.0,"flat number 703, kalypso tower 4, jaypee wish town noida, sector 128, Sector 128, Noida, Delhi NCR",1800,28.529146,77.355843,2,3,1.0,,Flat,8333
60500.0,"Noida Extension, Noida., Noida Extension, Noida, Delhi NCR",1440,28.587499354879053,77.44316979301459,3,2,5.0,1.0,Flat,3819
46200.0,"Noida Extension, Noida, Noida Extension, Noida, Delhi NCR",1040,28.616204,77.422256,2,2,3.0,2.0,Flat,4038
42900.0,"Noida extension., Noida Extension, Greater Noida, Delhi NCR",1025,28.57223,77.474898,2,2,3.0,1.0,Flat,3804
110000.0,"Sector 16 Vasundhara, Ghaziabad, Delhi NCR",1836,28.6571606,77.355748,3,2,,,Individual House,5446
83600.0,"Vaishali Ghaziabad, Vaishali, Ghaziabad, Delhi NCR",1350,28.645769,77.38511,3,2,4.0,1.0,Flat,5629
42900.0,"Sector 81, Gurgaon, Sector 81, Gurgaon, Delhi NCR",800,28.387731,76.96791987,2,2,1.0,,Flat,4875
99000.0,"sector 103 gurgaon, Dwarka Expressway, Gurgaon, Delhi NCR",1481,28.49744987487793,77.02709197998047,2,2,2.0,2.0,Flat,6076
91850.0,"lotus boulevard, Sector 100, Noida, Delhi NCR",1398,28.5434121846104,77.367853,2,2,2.0,1.0,Flat,5972
148500.0,"Adhunik CGHS, Opp Tau Devil Lal Bio DiversitPark, Sector 52, Gurugram, Delhi NCR, Sector 52, Gurgaon, Delhi NCR",2150,28.435208771263,77.0902252334016,3,3,4.0,1.0,Individual House,6279
58410.0,"Shakti Khand 2, Ghaziabad, Delhi NCR",1100,28.6467392,77.3709475,3,2,,,Flat,4827
165000.0,"Sector 68, Gurgaon, Delhi NCR",1960,28.3907304,77.05782257,3,3,,,Flat,7653
192500.0,"Sector 104, Gurgaon, Sector 104, Gurgaon, Delhi NCR",2450,28.482277,76.99199526,3,3,3.0,2.0,Flat,7142
55000.0,"Aspire1106, Sector 78, Noida, Delhi NCR",1000,28.5604873040921,77.384084,2,2,3.0,1.0,Flat,5000
38500.0,"Gali No 9, Garhi Jharia Maria, New Delhi - South, Delhi NCR",850,28.559850692749023,77.24765014648438,2,2,1.0,,Flat,4117
50050.0,"Krishna Park Colony, New Delhi - South, Delhi NCR",950,28.50809,77.2314673,3,2,1.0,1.0,Flat,4789
44000.0,"Amritpuri B East of Kailash, Amritpuri, New Delhi - South, Delhi NCR",700,28.558586,77.2511855,2,2,,,Flat,5714
38500.0,"Shalimar Garden Exten 1 near Gulmohar park, Shalimar garden, Ghaziabad, Delhi NCR",750,28.6895694732666,77.33861541748047,2,2,2.0,,Flat,4666
38500.0,"205. Hardik tower sector 53 Noida, Sector 53, Noida, Delhi NCR",950,28.5905383,77.35981,2,2,1.0,1.0,Individual House,3684
26400.0,"Gali No-15 Sadnagar Palam New Delhi-110045, Palam Colony, New Delhi - Dwarka, Delhi NCR",540,28.59227180480957,77.08367919921875,2,2,1.0,,Flat,4444
880000.0,"Central park the resorts sector 48 gurgaon, Sector 48, Gurgaon, Delhi NCR",5571,28.424904,77.03476,5,5,3.0,4.0,Individual House,14360
104500.0,"Patel Nagar West, New Delhi - West, Delhi NCR",1200,28.652429,77.1643181,2,2,2.0,,Flat,7916
115500.0,"Sector 65, Gurgaon, Delhi NCR",1020,28.3978564,77.07393158,2,2,2.0,,Flat,10294
82500.0,"G 033., Sector 108, Gurgaon, Delhi NCR",1505,28.512136,76.986899,2,2,2.0,1.0,Flat,4983
52800.0,"Ghaziabad, Vivekanand Nagar, Ghaziabad, Delhi NCR",1232,28.652807235717773,77.45092010498047,6,3,2.0,,Flat,3896
61600.0,"Gurgaon - Faridabad Road, Gurgaon, Delhi NCR",929,28.436305,77.13605,2,2,1.0,,Flat,6027
93500.0,"Vaishali, Ghaziabad, Delhi NCR",1350,28.647938,77.340697,3,3,,,Flat,6296
51700.0,"Indirapuram Ghaziabad, Indirapuram, Ghaziabad, Delhi NCR",1085,28.646509,77.3814882767311,2,2,2.0,,Flat,4331
93500.0,"Sector 108, Gurgaon, Delhi NCR",1790,28.512136,76.986899,3,3,,,Flat,4748
110000.0,"Sector 104, Gurgaon, Sector 104, Gurgaon, Delhi NCR",1689,28.487018,76.998009,3,3,4.0,1.0,Flat,5920
198000.0,"Sector 67, Gurgaon, Sector 67, Gurgaon, Delhi NCR",2411,28.391644,77.06486457,3,3,3.0,2.0,Flat,7465
136400.0,"2nd floor metro view apartment sector 13 B dwarka, Sector 13 Dwarka, New Delhi - Dwarka, Delhi NCR",1650,28.6016822982437,77.0319327881991,3,2,2.0,2.0,Flat,7515
84700.0,"Sector 137, Noida, Sector 137, Noida, Delhi NCR",1685,28.5092080113141,77.4066255380327,3,4,4.0,1.0,Flat,4569
66000.0,"Vaishali, Ghaziabad, Delhi NCR",1050,28.648794,77.3425322478785,2,2,2.0,,Flat,5714
137500.0,"sector 6 dwarka, Sector 6 Dwarka, New Delhi - Dwarka, Delhi NCR",1300,28.59344,77.065951,2,2,2.0,2.0,Flat,9615
70180.0,"Chhatarpur New Delhi, Chhattarpur, New Delhi - South, Delhi NCR",1170,28.495893478393555,77.18599700927734,3,2,1.0,1.0,Flat,5452
81400.0,"Sohna Road, Gurgaon, Sector 33, Gurgaon, Delhi NCR",1275,28.28709602355957,77.06906127929688,2,2,2.0,1.0,Flat,5803
92400.0,"Sector 84, Gurugram, Haryana, Sihi, Gurgaon, Delhi NCR",1890,28.410466,76.962531,3,3,4.0,1.0,Flat,4444
70400.0,"Sector 76, Noida, Sector 76, Noida, Delhi NCR",1455,28.570142,77.3862730013034,3,2,3.0,1.0,Individual House,4398
209000.0,"Dwarka, New Delhi - Dwarka, Delhi NCR",1768,28.5934318343359,77.0442727572328,3,2,,2.0,Flat,10746
47300.0,"sector 1 greater noida west, Greater Noida West, Greater Noida, Delhi NCR",1295,28.566914,77.436434,2,2,4.0,2.0,Individual House,3320
261800.0,"Ibiza Town, Suraj Kund Road, Faridabad, Suraj Kund, Faridabad, Delhi NCR",3500,28.4818021,77.2200217,4,5,3.0,1.0,Flat,6800
115500.0,"Plot No:1, Sadarpur, Sector-45, Noida, Uttar Pradesh 201303, Sector 45, Noida, Delhi NCR",1850,28.548787,77.346032,3,4,2.0,2.0,Flat,5675
118800.0,"Sector 32 Sohna Gurgaon Haryana, Sohna, Gurgaon, Delhi NCR",1966,28.247592,77.069185,2,2,1.0,1.0,Flat,5493
60500.0,"Indirapuram, Ghaziabad, Delhi NCR",1350,28.6493479,77.3696259,2,2,,,Flat,4074
47520.0,"Sector 137, Noida, Sector 137, Noida, Delhi NCR",1040,28.509118,77.413416,2,2,3.0,1.0,Flat,4153
33000.0,"Sai Enclave niti khand indirapuram, Niti Khand-Indirapuram, Ghaziabad, Delhi NCR",800,28.6452824,77.3621025,2,2,1.0,1.0,Flat,3750
38500.0,"Greater Noida, Greater Noida West, Greater Noida, Delhi NCR",950,28.579593,77.445197,2,2,3.0,,Flat,3684
176000.0,"F-54., South City 2, Gurgaon, Delhi NCR",2000,28.4178669,77.0512457,4,4,3.0,2.0,Flat,8000
33000.0,"NH 24 Ghaziabad, NH 24, Ghaziabad, Delhi NCR",900,28.685449,77.5092258,2,2,3.0,1.0,Individual House,3333
36300.0,"Park Lotus Surajpur Greater Noida, Surajpur, Greater Noida, Delhi NCR",960,28.5128413669417,77.4895533166212,2,2,1.0,,Flat,3437
90200.0,"Gurgaon - Faridabad Road, Gurgaon, Gwal Pahari, Gurgaon - South, Delhi NCR",1371,28.433653,77.152919,2,2,3.0,2.0,Flat,5981
66000.0,"Unitech Horizon Greater Noida, PI 2, Greater Noida, Delhi NCR",1750,28.475274,77.545978,3,3,1.0,2.0,Flat,3428
45100.0,"NH 24 Ghaziabad, NH 24, Ghaziabad, Delhi NCR",1299,28.519997,77.376873,3,2,4.0,1.0,Flat,3156
57200.0,"plot no -02 E sector 12  Graeter noida west, Greater Noida West, Noida, Delhi NCR",1365,28.60595893859864,77.44451141357422,3,2,3.0,2.0,Flat,3809
231000.0,"godrej golf links, the crest, Pari Chowk, Greater Noida, Delhi NCR",2800,28.4655907,77.5114027,4,5,4.0,,Flat,7500
29150.0,"Sector 4, Greater Noida, Greater Noida West, Greater Noida, Delhi NCR",835,28.609898,77.436343,2,2,2.0,1.0,Flat,3173
110000.0,"Paschim Vihar, New Delhi - West, Delhi NCR",1000,28.6677244,77.0979515,2,2,,,Individual House,10000
49500.0,"A33 Shishram park Uttam Nagar, Uttam Nagar East, New Delhi - West, Delhi NCR",1000,28.63472366333008,77.04911041259766,3,2,1.0,1.0,Flat,4500
75900.0,"B1 1103 The Romano sector 118 Noida, Sector 118, Noida, Delhi NCR",1260,28.58548927307129,77.3993148803711,2,2,3.0,1.0,Flat,5476
148500.0,"Sector 99, Gurgaon, Delhi NCR",2425,28.44456311,76.9550119,4,4,,,Flat,5567
49500.0,"Pratap vihar Ghaziabad, Pratap Vihar, Ghaziabad, Delhi NCR",1198,28.633363723754883,77.43121337890625,3,2,1.0,,Flat,3756
357500.0,"Sultanpur, New Delhi, Sultanpur, New Delhi - South, Delhi NCR",3000,28.4969141,77.1652546,3,3,2.0,2.0,Flat,10833
121000.0,"Sector 71, Gurgaon, Delhi NCR",1743,28.419032,77.028272,3,3,2.0,1.0,Individual House,6310
35200.0,"Gali no 4, behind Aman bakery, Mahavir Enclave Part 1, New Delhi - Dwarka, Delhi NCR",650,28.59803581237793,77.07652282714844,2,2,1.0,,Flat,4923
35200.0,"greater noida, Jalvayu Vihar, Greater Noida, Delhi NCR",815,28.446343,77.515305,2,2,,,Flat,3926
37400.0,"Bhopura, Ghaziabad, Delhi NCR",1050,28.7005505,77.3286995,2,2,,,Flat,3238
122100.0,"Ashoka Enclave Part 1, Faridabad, Delhi NCR",2100,28.468477249145508,77.31389617919922,4,3,2.0,,Flat,5285
38500.0,"Sector 5 Rajendra Nagar, Ghaziabad, Delhi NCR",900,28.6809994,77.356998,2,2,1.0,,Flat,3888
137500.0,"Unitech Fresco Nirvana Country Sector 50, Gurgaon, Nirvana Country, Gurgaon, Delhi NCR",1836,28.414627,77.060127,3,3,3.0,2.0,Flat,6808
93500.0,"Plot No. GH 03/A, Sector 143, Noida, Uttar Pradesh 201306, Sector 143A, Noida, Delhi NCR",1495,28.502597,77.428742,3,2,,,Flat,5685
46200.0,"Noida Extension, Noida, Noida Extension, Noida, Delhi NCR",1040,28.616204,77.422256,2,2,2.0,1.0,Flat,4038
902000.0,"Golf Course Road, Gurgaon, Golf Course Road, Gurgaon, Delhi NCR",5495,28.4361825275276,77.1043058418003,5,6,2.0,3.0,Flat,14922
99000.0,"panchwati appartments, Vikaspuri, New Delhi - West, Delhi NCR",1250,28.6401587513384,77.066265900795,2,2,2.0,,Individual House,7200
154000.0,"B-31/S-1, B- Block, Dilshad Garden, Shahdara, Delhi-110095, Dilshad Garden, New Delhi - East, Delhi NCR",2500,28.68651580810547,77.29942321777344,3,2,1.0,2.0,Flat,5600
97900.0,"Sector 37D, Gurgaon, Delhi NCR",1815,28.45251307,76.97627035,3,3,,,Flat,4903
35200.0,"Raj Nagar Extension, Ghaziabad, Delhi NCR",1041,28.701837981083,77.423206716491,2,2,3.0,,Flat,3073
165000.0,"S Block, Sector 49, Gurgaon, Delhi NCR",2000,28.412109,77.049522,4,4,3.0,2.0,Flat,7500
101200.0,"Sector-82, Mapsko Casa Bella, Sector 82, Gurgaon, Delhi NCR",1960,28.393665,76.962842,3,3,3.0,123.0,Individual House,4693
126500.0,"sector 84, Sihi, Gurgaon, Delhi NCR",1963,28.406752,76.96474017,3,3,3.0,2.0,Flat,5858
66000.0,"Sector 119, Noida -201301, Sector 119, Noida, Delhi NCR",1246,28.5863287948209,77.4010620206905,2,2,3.0,1.0,Individual House,4815
42900.0,"omicran near Parichowk supertech Czar, Omicron, Greater Noida, Delhi NCR",1085,28.473679,77.506258,2,2,3.0,,Flat,3594
39600.0,"Ajanra le Garden, sector 16, greater noida, dist. Gautam budh nagar. U.P., Greater Noida West, Greater Noida, Delhi NCR",995,28.606945,77.455578568448,2,2,3.0,,Individual House,3618
539000.0,"Sector 27, Greater Noida, Noida, Uttar Pradesh, Sector 27, Greater Noida, Delhi NCR",6168,28.470149,77.535673,5,5,3.0,3.0,Flat,7944
82500.0,"Sector 77, Gurgaon, Delhi NCR",1260,28.3824895,76.9823169,2,2,,1.0,Individual House,5952
198000.0,"Eastend Aptts, Mayur Vihar 1, New Delhi - East, Delhi NCR",1700,28.5884566,77.304787,4,3,1.0,1.0,Individual House,10588
189200.0,"Sector 10 Dwarka, New Delhi - Dwarka, Delhi NCR",2025,28.5858422747995,77.0606247868441,3,2,4.0,2.0,Flat,8493
187000.0,"Moti Nagar, New Delhi - West, Delhi NCR",1600,28.66662979125977,77.1522216796875,3,2,2.0,2.0,Flat,10625
60500.0,"sector 12 gurgaon, Sector 12, Gurgaon, Delhi NCR",1150,28.497455596923828,77.02713775634766,3,2,1.0,1.0,Flat,4782
143000.0,"Kumar Excellency plaza, Sector 11 Vasundhara, Ghaziabad, Delhi NCR",2300,28.655845642089844,77.36822509765625,4,4,3.0,,Flat,5652
108900.0,"Sector 90, Gurugram, Haryana 122505, Sector 90, Gurgaon, Delhi NCR",1760,28.407361,76.93426176,3,2,4.0,1.0,Flat,5625
77000.0,"Sanjiv Malhotra D-2, 208/209, Ground Floor Sector-11, Rohin, New Delhi- 110085, Sector 11 Rohini, New Delhi - Rohini, Delhi NCR",559,28.7295315,77.106949,2,2,,,Individual House,12522
56650.0,"Sector 143, Noida, Sector 143, Noida, Delhi NCR",1234,28.500621,77.424203,2,2,2.0,,Flat,4173
82500.0,"Paschim Vihar, New Delhi, Paschim Vihar, New Delhi - West, Delhi NCR",700,28.6628739905415,77.0977670161547,2,2,,1.0,Flat,10714
28930.0,"415  81High street mall sector 81 not pull greater Faridabad, Sector 81, Faridabad, Delhi NCR",750,28.39244079589844,77.34424591064453,3,2,2.0,,Flat,3506
50600.0,"Uttam Nagar West, New Delhi - West, Delhi NCR",1000,28.618239,77.054361,3,2,,1.0,Flat,4600
82500.0,"G Tower, Amrapali Sapphire Phase I, Sector 45, Noida, Delhi NCR",1390,28.548787,77.346032,3,2,3.0,1.0,Flat,5395
77000.0,"Sector 69, Gurgaon, Sector 69, Gurgaon, Delhi NCR",1326,28.397731,77.036526,3,3,3.0,1.0,Flat,5279
63799.99999999999,"Sector 129, Noida, Delhi NCR",1270,28.524543,77.364765,3,3,,,Flat,4566
57200.0,"Sector 143, Noida, Delhi NCR",1175,28.500621,77.424203,2,2,,,Individual House,4425
286000.0,"Sector 128 Noida, Sector 128, Noida, Delhi NCR",3755,28.5279804259531,77.354191,4,6,2.0,2.0,Flat,6924
220000.0,"DLF Capital Greens Phase 1, Moti Nagar, New Delhi - West, Delhi NCR",1650,28.666059,77.150134,3,3,4.0,1.0,Flat,12121
35200.0,"895., Mehrauli, New Delhi - South, Delhi NCR",800,28.5201861,77.179158,2,2,1.0,,Flat,4000
93500.0,"Near Dashmesh Hospital, Jail Road, Shiv Nagar, New Delhi - West, Delhi NCR",1100,28.6288025,77.0958556,2,2,,1.0,Flat,7727
47520.0,"Sector 67, Gurgaon, Delhi NCR",800,28.38762,77.06237,2,2,,,Flat,5400
73809.989,"Vasundhara, Ghaziabad, Vasundhara, Ghaziabad, Delhi NCR",1180,28.65493,77.350989,2,2,2.0,1.0,Flat,5686
185900.0,"firstfloor, Sushant Lok 1 Block C, Gurgaon, Delhi NCR",1935,28.45451736450196,77.08187103271484,3,4,2.0,2.0,Flat,8733
137500.0,"Sec 30, Near N M C hospital, Noida, Ram Vihar, Noida, Delhi NCR",1800,28.576661,77.339673,3,3,2.0,1.0,Flat,6944
55000.0,"Unitech Unihomes, Tower A1, Sector-117, Noida, Sector 117, Noida, Delhi NCR",1200,28.577634811401367,77.39510345458984,3,2,3.0,,Flat,4166
132000.0,"Lajpat Nagar, New Delhi, Lajpat Nagar 4, New Delhi - South, Delhi NCR",1250,28.564363,77.24171,2,2,2.0,2.0,Flat,9600
29700.0,"Plot Number 6 Flat number 101  Hans enclave Gurgaon, Hans Enclave, Gurgaon, Delhi NCR",770,28.497467041015625,77.027099609375,2,2,1.0,1.0,Flat,3506
121000.0,"Vasundhara Enclave, New Delhi - East, Delhi NCR",1200,28.6017251,77.3178069,3,2,,,Flat,9166
154000.0,"Row House, Sector 21 Surya Vihar-, Gurgaon, Delhi NCR",2500,28.51766395568848,77.07933044433594,5,5,,3.0,Flat,5600
82500.0,"Sector 37D, Gurgaon, Delhi NCR",1675,28.446568,76.968477,3,3,,,Flat,4477
132000.0,"4a/301, Sector 85, Gurgaon, Delhi NCR",2520,28.406684,76.952289,4,3,3.0,,Flat,4761
45100.0,"Noida-Greater Noida Expy, Sector 134, Noida, Uttar Pradesh, Sector 134, Noida, Delhi NCR",1000,28.503955,77.384451,2,2,2.0,2.0,Flat,4100
41690.0,"Wave Floor Sec- 2, Wave City N.H. - 24 Ghaziabad, Wave City, Ghaziabad, Delhi NCR",1310,28.646836,77.508238,2,3,2.0,1.0,Flat,2893
57200.0,"Indirapuram, Nyay Khand 1, Ghaziabad, Delhi NCR",1065,28.63350296020508,77.43159484863281,2,2,3.0,2.0,Flat,4882
137500.0,"Sector 70A, Gurgaon, Delhi NCR",1830,28.385432,77.017122,3,3,3.0,1.0,Flat,6830
167200.0,"Sector 48, Gurgaon, Delhi NCR",2268,28.41492080688477,77.03590393066406,3,3,2.0,,Flat,6701
115500.0,"Sector 80, Gurgaon, Sector 80, Gurgaon, Delhi NCR",1821,28.37561513,76.95761609,3,3,3.0,,Individual House,5766
44000.0,"Yamuna Expressway, Greater Noida, Delhi NCR",1115,28.309616,77.55859,2,2,,1.0,Flat,3587
36629.989,"Sector 137, Noida, Delhi NCR",825,28.505584,77.410762,2,2,,,Individual House,4036
187000.0,"Niti Khand  1 Indirapuram Ghaziabad, Niti Khand-Indirapuram, Ghaziabad, Delhi NCR",3500,28.63601493835449,77.43365478515625,4,3,2.0,1.0,Flat,4857
39600.0,"Plot No.1, Gadaipur, Mehrauli-Mandi Road, Gadaipur, New Delhi - South, Delhi NCR",750,28.4826489,77.1600563,2,2,2.0,1.0,Flat,4800
49500.0,"sector 2, Rajendra Nagar, Ghaziabad, Delhi NCR",1250,28.68176651000977,77.36365509033203,3,2,1.0,,Flat,3600
60500.0,"I block - 21069, Noida Extension, Noida, Delhi NCR",1375,28.616204,77.422256,3,3,3.0,,Flat,4000
269500.0,"Sector 60, Gurgaon, Delhi NCR",2797,28.400064,77.0959513,4,4,,,Individual House,8759
495000.0,"Sector 42, Gurgaon, Delhi NCR",9000,28.45846939086914,77.108642578125,10,10,10.0,10.0,Flat,5000
55000.0,"NH 24, Ghaziabad, NH 24, Ghaziabad, Delhi NCR",1470,28.663705,77.470854,3,2,3.0,,Flat,3401
137500.0,"Sector 17, Faridabad, Delhi NCR",3150,28.40966796875,77.33113861083984,3,3,2.0,,Flat,3968
81400.0,"Vasundhara, Ghaziabad, Delhi NCR",1530,28.655782,77.3527833,3,2,3.0,1.0,Flat,4836
45100.0,"H.No. 18A, Adarsh Nagar, Nandgram, Ghaziabad, Nand Gram, Ghaziabad, Delhi NCR",1200,28.69149398803711,77.40766906738281,3,2,,,Flat,3416
176000.0,"Dwarka Sector 22, New Delhi, Sector 22 Dwarka, New Delhi - Dwarka, Delhi NCR",1750,28.5593993,77.0596789,3,2,3.0,2.0,Flat,9142
35750.0,"Raj Nagar Extension Ghaziabad, Raj Nagar Extension, Ghaziabad, Delhi NCR",1050,28.7001920400432,77.427474,2,2,2.0,,Individual House,3095
60500.0,"2 Floor, Sector 16A, Faridabad, Delhi NCR",1100,28.4088605,77.314687,2,2,2.0,1.0,Flat,5000
99000.0,"Sector 37D, Gurgaon, Sector 37D, Gurgaon, Delhi NCR",1815,28.455376,76.97621181,3,3,3.0,1.0,Individual House,4958
192500.0,"Moti Nagar, New Delhi, Moti Nagar, New Delhi - West, Delhi NCR",1600,28.666059494018555,77.15013122558594,3,2,3.0,1.0,Individual House,10937
108900.0,"Faridabad, Faridabad, Delhi NCR",1650,28.481460571289062,77.31151580810547,4,3,2.0,,Flat,6000
93500.0,"Indirapuram, Ghaziabad, Vaibhav Khand, Ghaziabad, Delhi NCR",1460,28.63822364807129,77.3663558959961,3,3,3.0,1.0,Flat,5821
64789.99999999999,"Shakti Khand 2, Shakti Khand 2, Ghaziabad, Delhi NCR",1150,28.6467399597168,77.3709487915039,3,2,2.0,1.0,Flat,5121
99000.0,"Indirapuram, Ghaziabad, Indirapuram, Ghaziabad, Delhi NCR",1800,28.646093,77.384003,3,2,2.0,,Flat,5000
264000.0,"Cgu061., Kirti Nagar, New Delhi - West, Delhi NCR",1632,28.666059,77.150134,3,3,3.0,1.0,Flat,14705
132000.0,"Sector 45, Noida, Sector 45, Noida, Delhi NCR",1850,28.548787,77.346032,3,4,4.0,,Flat,6486
70400.0,"GA 703 Assotech Windsor court Sector 78Noida, Sector 78, Noida, Delhi NCR",1390,28.56118695507,77.3865691983336,3,3,3.0,,Flat,4604
363000.0,"Golf course Extension Road, Gurgaon, Sector 66, Gurgaon, Delhi NCR",3699,28.401255,77.053437,4,4,3.0,2.0,Individual House,8921
110000.0,"Second Floor Villa 83 Block III Charmwood Village, Charmwood Village, Faridabad, Delhi NCR",1908,28.4913752,77.2908548,4,3,1.0,,Individual House,5241
93500.0,"Sector 75, Noida, Sector 75, Noida, Delhi NCR",1550,28.5784405855563,77.3814075289833,3,2,3.0,1.0,Flat,5483
81400.0,"Sector 143B, Noida, Uttar Pardes, Sector 143 B, Noida, Delhi NCR",1480,28.495486,77.25219,3,3,,,Individual House,5000
47300.0,"151., Indirapuram, Ghaziabad, Delhi NCR",968,28.6493479,77.3696259,3,2,1.0,,Flat,4442
63799.99999999999,"Sector 143A, Noida, Delhi NCR",1150,28.499248504638672,77.42980194091797,2,2,,,Flat,5043
99000.0,"Sector 35 Sohna, Gurgaon, Delhi NCR",1750,28.283682,77.047379,3,3,,,Flat,5142
38500.0,"Upper Ground Floor Plot Number 101 Lane No 6  Dwarka Mor Delhi West Delhi, Dwarka Mor, New Delhi - West, Delhi NCR",800,28.63477325439453,77.0490951538086,3,2,1.0,,Flat,4375
137500.0,"Sector 19 Dwarka, New Delhi - Dwarka, Delhi NCR",1700,28.5775127933567,77.042535339585,2,2,3.0,1.0,Flat,7352
68200.0,"Flat no. 1404 Floor 14th Tower Peace  Wing B Sikka Karni Green Sector 78 Noida, Sector 78, Noida, Delhi NCR",1210,28.5604873040921,77.384084,2,3,3.0,1.0,Flat,5123
28050.0,"Swaroop garden gurgaon, Rajendra Park, Gurgaon, Delhi NCR",540,28.49748611450196,77.02713012695312,2,2,1.0,1.0,Flat,4722
66000.0,"Rr 9 top floor, naveen shahdara., Naveen Shahdara, New Delhi - East, Delhi NCR",1100,28.67613220214844,77.28523254394531,2,2,1.0,,Flat,5454
121000.0,"Mahindra Aura, Sector 110 A, Sector 110A, Gurgaon, Delhi NCR",1610,28.513139,77.025952,3,3,3.0,,Flat,6832
121000.0,"Indirapuram, Ghaziabad, Delhi NCR",2245,28.6485932413911,77.3794392124472,4,3,,,Individual House,4899
45100.0,"E 55B Vishwakarma Colony MB Road New Delhi 110044, Vishwakarma Colony, New Delhi - South, Delhi NCR",900,28.524024963378903,77.21276092529297,3,2,1.0,,Flat,4555
102300.0,"FLAT NO.301FLOOR-3RDBlock-HSECTOR 78-79MAPSKOMOUNTIVILLEGURGAON, Sector 79, Gurgaon, Delhi NCR",1490,28.37423557,76.95241631,3,3,3.0,,Flat,6241
82500.0,"342 Durgapuri Extension Delhi India, Durgapuri Extension, New Delhi - East, Delhi NCR",1250,28.686542510986328,77.29959869384766,3,2,2.0,2.0,Flat,6000
49500.0,"flat no 1203 Paras seasons 168 Noida, Sector 168, Noida, Delhi NCR",1130,28.4962932685044,77.4085199482841,3,2,2.0,,Flat,3982
103400.0,"15051., Sector 150, Noida, Delhi NCR",1625,28.42491581294641,77.486721,3,2,3.0,,Individual House,5784
37400.0,"Lg3/78., Sector 6 Vaishali, Ghaziabad, Delhi NCR",900,28.6485885,77.3533389,2,2,1.0,,Flat,3777
77000.0,"Delhi., Subhash Park-Shahdara, New Delhi - East, Delhi NCR",1008,28.686573028564453,77.29962921142578,3,2,1.0,2.0,Flat,6944
247500.0,"Kalkaji, New Delhi - South, Delhi NCR",1900,28.543664932250977,77.25489807128906,3,3,2.0,,Flat,11842
220000.0,"D 1001 BPTP Freedom Park Life Sector 57 Gurgaon, Sector 57, Gurgaon, Delhi NCR",2428,28.423439458762,77.0691066564545,3,4,3.0,2.0,Flat,8237
106700.0,"C-177, First Floot, Kendriya Vihar, Sector 56, Gurgaon, Kendriya Vihar, Gurgaon, Delhi NCR",1250,28.4245106404379,77.1013245863658,3,2,2.0,2.0,Individual House,7760
148500.0,"601., Sector 21C, Faridabad, Delhi NCR",2800,28.430349349975582,77.29561614990234,4,4,2.0,7.0,Flat,4821
49500.0,"Near Andolan Park, Canara Bank, Savitri Nagar Village, New Delhi - South, Delhi NCR",800,28.539813995361328,77.21868133544922,2,2,,,Flat,5625
29150.0,"Shivani enclave old palam road kakrola dwarka., Kakrola, New Delhi - Dwarka, Delhi NCR",608,28.634742736816406,77.04910278320312,2,2,1.0,,Flat,4358
31900.0,"Bhopura, Ghaziabad, Delhi NCR",965,28.728555,77.337353,2,2,,,Flat,3005
77000.0,"Sector 119, Noida, Delhi NCR",1256,28.5898617123258,77.4034337616235,2,2,1.0,,Flat,5573
869000.0,"Sector 53 Vipul Belmonte  Golf Course Road Gurgaon  Flat no.1402 Tower 2, Sector 53, Gurgaon, Delhi NCR",7200,28.4407383787887,77.1012647429428,5,6,4.0,3.0,Flat,10972
66440.0,"Raj Nagar Extension, NH 58, Ghaziabad, Uttar Pradesh, India., Raj Nagar, Ghaziabad, Delhi NCR",1341,28.682107,77.4465784,3,2,,,Flat,4504
242000.0,"Sector 27, Greater Noida, Noida, Uttar Pradesh, Sector 27, Greater Noida, Delhi NCR",2835,28.470149,77.535673,4,5,4.0,2.0,Individual House,7760
33000.0,"Laxmi Nagar, New Delhi - East, Delhi NCR",630,28.68641662597656,77.2995834350586,2,2,1.0,1.0,Flat,4761
258500.0,"Golf Course Road, Gurgaon, Golf Course Road, Gurgaon, Delhi NCR",2985,28.441368,77.098124,3,3,2.0,,Flat,7872
165000.0,"Sector 75, Noida, Sector 75, Noida, Delhi NCR",2550,28.5750243,77.3803,4,4,5.0,2.0,Flat,5882
121000.0,"Sector 70 Gurgaon, Sector 70, Gurgaon, Delhi NCR",1510,28.3930662,77.022442,3,2,4.0,1.0,Flat,7284
49500.0,"janki puri, Uttam Nagar, New Delhi - West, Delhi NCR",1000,28.621288299560547,77.05307006835938,3,2,1.0,,Flat,4500
55000.0,"sanskriti Vihar GC 16, C-16, Greater Noida, Delhi NCR",1205,28.453581,77.556221,2,2,2.0,,Flat,4149
44000.0,"Gaur Green City 2, Avenue 16, Noida Extension Block D, Noida, Delhi NCR",1010,28.619028,77.425972,2,2,3.0,1.0,Flat,3960
68200.0,"palam Village Delhi, Palam, New Delhi - Dwarka, Delhi NCR",950,28.634750366210938,77.04913330078125,3,2,1.0,1.0,Flat,6526
107800.0,"Sector 37D, Gurgaon, Delhi NCR",1765,28.4460523,76.9772858,3,3,2.0,1.0,Flat,5552
72600.0,"Sector 76, Noida, Delhi NCR",1455,28.5684777,77.3775,3,3,4.0,1.0,Flat,4536
60500.0,"Sector 15 Dwarka, New Delhi - Dwarka, Delhi NCR",1000,28.615032,77.0290715,3,2,,,Flat,5500
154000.0,"1162., Sector 57, Gurgaon, Delhi NCR",1750,28.4215541,77.0780609,3,4,2.0,10.0,Flat,8000
165000.0,"Sector 56, Gurgaon, Delhi NCR",1900,28.424436569213867,77.09821319580078,3,3,,,Flat,7894
145200.0,"Vasundhara sector 5 ghaziabad, Vasundhara, Ghaziabad, Delhi NCR",1935,28.642318725585938,77.42117309570312,3,3,2.0,,Flat,6821
30800.0,"Shalimar garden Ghaziabad, Shalimar garden, Ghaziabad, Delhi NCR",800,28.63578224182129,77.43241882324219,2,2,1.0,,Individual House,3500
154000.0,"naer bluebells school, Sector 4, Gurgaon, Delhi NCR",1800,28.47489356994629,77.00980377197266,3,3,1.0,,Flat,7777
37400.0,"Indirapuram, Ghaziabad, Delhi NCR",850,28.6493479,77.3696259,2,2,,,Flat,4000
126500.0,"Sector 68, Gurgaon, Sector 68, Gurgaon, Delhi NCR",1478,28.386791,77.049466,2,2,3.0,,Flat,7780
36300.0,"201 Whitney homes sector 121 noida, Sector 121, Noida, Delhi NCR",900,28.600419998168945,77.44546508789062,2,2,1.0,,Flat,3666
66000.0,"Alistonia Estate, Greater Noida, Delhi NCR",1234,28.438316345214844,77.51483154296875,2,2,,,Flat,4862
61600.0,"Zeta 2, Greater Noida, Delhi NCR",1507,28.517742,77.529334,2,3,,,Individual House,3715
63799.99999999999,"FirstTower at Gate2T18 Flat Floor-No06-02, Type C, Unit Type 3BHK Servent 3T UT., Sector 137, Noida, Delhi NCR",1365,28.589075088500977,77.32030487060547,3,3,2.0,,Flat,4249
23100.0,"Avantika Extension, Ghaziabad, Delhi NCR",615,28.6738471,77.4829531,2,2,1.0,,Flat,3414
57200.0,"Antriksh Golf view 1Sector 78Noida, Sector 78, Noida, Delhi NCR",1140,28.5575028022171,77.386464965331,2,2,3.0,1.0,Individual House,4561
88000.0,"Sector 76, Gurgaon, Sector 76, Gurgaon, Delhi NCR",1325,28.39343,76.99731,2,2,2.0,702.0,Individual House,6037
84150.0,"Sector 47 Sohna Road, Sector 47, Gurgaon, Delhi NCR",997,28.425657,77.04300339,2,2,2.0,,Flat,7673
60500.0,"plot number 2261 Adarsh Nagar gurgaon, Adarsh Nagar, Gurgaon, Delhi NCR",1100,28.49742317199707,77.02734375,3,2,1.0,1.0,Flat,5000
59400.0,"Eldeco Golf View Apartments, Sector Omega 1, Greater Noida, Uttar Pradesh, Omega 1, Greater Noida, Delhi NCR",1405,28.4570313,77.514304,3,2,3.0,2.0,Individual House,3843
93500.0,"Sector 119, Noida, Sector 119, Noida, Delhi NCR",1775,28.588371,77.400313,3,3,3.0,2.0,Flat,4788
66000.0,"A5 Kewal Park Extension Delhi India, Kewal Park, New Delhi - North, Delhi NCR",1000,28.686418533325195,77.299560546875,3,3,,,Flat,6000
192500.0,"c113 3rd floor Shakti nagar extension ashok vihar phase 3 Delhi 110052, Ashok Vihar Phase 3, New Delhi - North, Delhi NCR",1658,28.68220329284668,77.18806457519531,3,2,1.0,2.0,Flat,10554
26950.0,"Sadullapur, Near Bloom International School, Greater Noida West, Sadullapur, Greater Noida, Delhi NCR",630,28.591666,77.484749,2,2,1.0,1.0,Flat,3888
80300.0,"Indirapuram Ghaziabad, Indirapuram, Ghaziabad, Delhi NCR",1742,28.641756,77.3788593620366,3,2,1.0,,Flat,4190
159500.0,"Dwarka Sector 23, New Delhi, Sector 23 Dwarka, New Delhi - Dwarka, Delhi NCR",1650,28.5621338401025,77.0567893768121,3,2,3.0,,Individual House,8787
52800.0,"Sector 46, Noida, Delhi NCR",950,28.5507543331581,77.3616874515359,2,2,3.0,,Flat,5052
46200.0,"Gyan Khand 1, Ghaziabad, Delhi NCR",800,28.641779,77.3502969,2,2,,,Flat,5250
140800.0,"ireo uptown Sector 66 gurgaon, Sector 66, Gurgaon, Delhi NCR",1472,28.39522652,77.05988662,2,3,3.0,1.0,Flat,8695
302500.0,"Plot no- 77 Sector 13 Dwarka, Sector 13 Dwarka, New Delhi - Dwarka, Delhi NCR",2250,28.5994675,77.0349205,4,4,2.0,,Flat,12222
132000.0,"K tower, Sector 45, Noida, Delhi NCR",1850,28.548787,77.346032,3,4,,2.0,Flat,6486
82500.0,"Sector 30, Gurgaon, Jal Vayu Vihar, Gurgaon, Delhi NCR",900,28.4584723542826,77.0525565353357,2,2,1.0,,Individual House,8333
38500.0,"Shalimar Garden Extension 1, Ghaziabad, Delhi NCR",1050,28.633676528930664,77.43097686767578,2,2,,2.0,Flat,3333
42350.0,"D Block Jawahar Park KhanpurNew Delhi, Jawahar Park, New Delhi - South, Delhi NCR",720,28.52319526672364,77.21430969238281,2,2,1.0,,Individual House,5347
88000.0,"Kaushambi, Ghaziabad, Kaushambi, Ghaziabad, Delhi NCR",1550,28.6354490945654,77.3238143396458,3,2,2.0,1.0,Flat,5161
47850.0,"Omicron 1, Greater Noida, Delhi NCR",1300,28.4626703284033,77.5583025174588,3,3,,,Flat,3346
99000.0,"Sector 107, Gurgaon, Delhi NCR",1536,28.514908,76.974388,2,2,4.0,1.0,Individual House,5859
55000.0,"Tech Zone IV Gautam Budh NagarGreater Noida (West), Greater Noida West, Greater Noida, Delhi NCR",1285,28.605958,77.444512,2,2,4.0,,Flat,3891
63799.99999999999,"House No 47 Block E  Floor 1 Sec 11 Faridabad, Sector 11, Faridabad, Delhi NCR",1350,28.34699821472168,77.32400512695312,3,2,2.0,2.0,Individual House,4296
46200.0,"Sector 1, Greater Noida, Delhi NCR",1335,28.5661101,77.4406099,2,2,,,Flat,3146
97900.0,"2931., Sushant Lok 1 Block C, Gurgaon, Delhi NCR",1000,28.454517,77.081868,2,2,2.0,2.0,Flat,8900
104500.0,"T1 - 401., Sector 37D, Gurgaon, Delhi NCR",1811,28.45251307,76.97627035,3,3,4.0,,Individual House,5245
50600.0,"Noida Extension, Greater Noida, Noida Extension, Greater Noida, Delhi NCR",1175,28.617567,77.426765,3,2,3.0,,Flat,3914
220000.0,"Sector 6 Dwarka, New Delhi - Dwarka, Delhi NCR",1700,28.5962,77.067013,3,3,,,Flat,11764
31900.0,"Sector 107, Gurgaon, Dwarka-Manesar Expressway, Gurgaon, Delhi NCR",554,28.51348116,76.971479,2,2,,1.0,Flat,5234
148500.0,"C4A/9A Janak Puri New Delhi 110058, Janakpuri, New Delhi - West, Delhi NCR",1500,28.621054,77.0905294,4,3,,,Flat,9000
44000.0,"Sector 88, Faridabad, Delhi NCR",1250,28.4189198883071,77.3555759540603,2,2,,,Flat,3200
308000.0,"c-1/41 a, Budh Vihar Phase 1, New Delhi - Rohini, Delhi NCR",2200,28.63664054870605,77.12469482421875,6,5,2.0,1.0,Flat,12727
44000.0,"Indirapuram, Ghaziabad, Uttar Pradesh, Gyan Khand 3, Ghaziabad, Delhi NCR",850,28.645341,77.3549293203382,2,2,1.0,1.0,Flat,4705
88000.0,"Vasundhara Enclave, New Delhi - East, Delhi NCR",1000,28.6005236146549,77.3116078326732,2,2,,,Flat,8000
141900.0,"Pocket 4 Akash Ganga Appartment  Sector 24, Sector 24 Rohini, New Delhi - Rohini, Delhi NCR",1400,28.7265057161352,77.0833665378642,3,2,2.0,,Flat,9214
99000.0,"Sector 76, Noida, Delhi NCR",1325,28.5685416949121,77.3792999293712,3,2,3.0,,Flat,6792
35200.0,"aditya world city NH 24 Ghaziabad, NH 24, Ghaziabad, Delhi NCR",840,28.683082,77.50921,2,2,2.0,1.0,Flat,3809
45100.0,"Block E, Sector 85, Faridabad, Sector 85, Faridabad, Delhi NCR",1065,28.4042306,77.3559561,3,2,3.0,,Flat,3849
77000.0,"R025d101203/flat #1203., Greater Noida West, Noida, Delhi NCR",1585,28.605958,77.444512,3,3,3.0,,Flat,4416
495000.0,"N Block Greater Kailash 1, GK I, New Delhi - South, Delhi NCR",2700,28.522932052612305,77.21456909179688,4,4,2.0,2.0,Flat,16666
82500.0,"Sector 119, Noida, Sector 119, Noida, Delhi NCR",1515,28.5898617123258,77.4034337616235,3,3,3.0,,Flat,4950
78100.0,"Ranjeet Nagar, New Delhi - West, Delhi NCR",900,28.63475799560547,77.0490951538086,2,2,,,Flat,7888
77000.0,"E-1005, Prateek Laurel, sector-120, Sector 120, Noida, Delhi NCR",1135,28.587310508382,77.3959017798717,2,2,1.0,,Flat,6167
88000.0,"Sector 62Noida stellar park apartments, C Block, Noida, Delhi NCR",1500,28.614131927490234,77.36986541748047,3,3,1.0,1.0,Flat,5333
660000.0,"TH - 63, Jaypee Wishtown, Jaypee Greens, Sector - 128, Noida, Sector 128, Noida, Delhi NCR",5000,28.526555,77.363882,5,6,4.0,2.0,Flat,12000
59950.0,"Greater Noida West, Greater Noida West, Greater Noida, Delhi NCR",1470,28.579593,77.445197,3,2,3.0,,Flat,3707
242000.0,"C 409 B  Sushant Lok Phase 1  Gurgaon, Sushant Lok 1 Block C, Gurgaon, Delhi NCR",2700,28.34468650817871,77.32616424560547,4,4,2.0,3.0,Flat,8148
165000.0,"Sector 168, Noida, Sector 168, Noida, Delhi NCR",2275,28.493247,77.408015,3,4,5.0,1.0,Flat,6593
53900.0,"Gaur Yamuna City 16th Park View, Taj Expressway, Noida, Delhi NCR",1475,28.432445526123047,77.50791931152344,3,3,3.0,1.0,Flat,3322
140800.0,"Sector 85, Gurgaon, Sector 85, Gurgaon, Delhi NCR",1837,28.409389,76.951659,3,3,2.0,1.0,Flat,6967
198000.0,"D-7/23 Sector 15 Rohini, Sector 15 Rohini, New Delhi - Rohini, Delhi NCR",2400,28.634740829467773,77.04914855957031,4,2,3.0,,Flat,7500
99000.0,"Sector 137, Noida, Sector 137, Noida, Delhi NCR",1950,28.509118,77.413416,4,3,4.0,,Flat,4615
159500.0,"Sector 5, Vasundhara, Ghaziabad, Uttar Pradesh., Sector 5 Vasundhara, Ghaziabad, Delhi NCR",1935,28.660121,77.379704,3,4,3.0,,Flat,7493
357500.0,"Sector C Vasant Kunj, New Delhi - South, Delhi NCR",2400,28.53547477722168,77.1448974609375,3,3,3.0,2.0,Flat,13541
286000.0,"H block dlf phase 1 Gurugram, DLF City Phase 1, Gurgaon, Delhi NCR",2430,28.49748039245605,77.02710723876953,3,3,2.0,1.0,Flat,10699
64899.99999999999,"Sector 76, Noida, Sector 76, Noida, Delhi NCR",995,28.575883,77.3853589646162,2,2,3.0,1.0,Flat,5929
52800.0,"Gurgaon, Sector 105, Gurgaon, Delhi NCR",1000,28.49750709533692,77.02711486816406,3,3,2.0,,Flat,4800
132000.0,"Sector 79, Gurgaon, Delhi NCR",1983,28.35895365,76.971587,3,3,5.0,2.0,Flat,6051
85800.0,"Sector 107, Noida, Delhi NCR",1295,28.542912592576,77.37203148936,2,2,2.0,1.0,Individual House,6023
77000.0,"G T Road, Ghaziabad, Delhi NCR",1820,28.6761797963942,77.3962820106621,3,3,3.0,2.0,Flat,3846
38500.0,"Sector 2 Rajendra Nagar, Ghaziabad, Delhi NCR",800,28.687614,77.351924,2,2,,1.0,Flat,4375
118800.0,"Sector 137, Noida, Delhi NCR",1895,28.508273,77.4089761622089,3,3,,,Flat,5699
101200.0,"Vasundhara Enclave, New Delhi - East, Delhi NCR",1000,28.60172462463379,77.31781005859375,2,2,2.0,1.0,Individual House,9200
110000.0,"Nehru Nagar Ghaziabad, Nehru Nagar, Ghaziabad, Delhi NCR",1800,28.636091232299805,77.43346405029297,3,3,1.0,1.0,Flat,5555
52800.0,"Flat B-1201, BPTP Princess Park, Sector 86, Neherpar, Faridabad, Faridabad, Sector 86, Faridabad, Delhi NCR",1487,28.4065234101184,77.3429934243275,3,2,3.0,,Flat,3227
192500.0,"Sector 63A, Gurgaon, Delhi NCR",2400,28.397099,77.086716,3,3,2.0,2.0,Flat,7291
148500.0,"Sector 43, Gurgaon, Delhi NCR",2300,28.45518493652344,77.08667755126953,3,3,3.0,1.0,Flat,5869
93500.0,"Alpha 1, Greater Noida, Uttar Pradesh",1545,28.4734678310178,77.5053685993689,3,3,,,Flat,5501
49500.0,"Hari Nagar Ashram New Delhi, Hari Nagar Ashram, New Delhi - South, Delhi NCR",1000,28.496795654296875,77.228515625,2,2,1.0,,Flat,4500
173800.0,"Sector 51, Gurgaon, Delhi NCR",2300,28.4287815,77.0661409,3,3,,1.0,Flat,6869
357500.0,"New Delhi, Safdarjung Enclave, Safdarjung Enclave, New Delhi - South, Delhi NCR",1829,28.564027,77.1945069,3,3,,,Individual House,17769
75900.0,"Indirapuram, Ghaziabad, Indirapuram, Ghaziabad, Delhi NCR",1362,28.650108,77.363755,3,3,4.0,1.0,Flat,5066
99000.0,"Siddhartha Vihar Ghaziabad, Siddhartha Vihar, Ghaziabad, Delhi NCR",1380,28.646286,77.406051,3,2,4.0,,Flat,6521
27500.0,"Rajendra Park, Gurgaon, Delhi NCR",560,28.497602462768555,77.02706909179688,2,2,1.0,1.0,Flat,4464
324500.0,"Gautam budh nagar, Greater Noida, Delhi NCR",3000,28.469204,77.511335,4,4,,,Flat,9833
24200.0,"Sudipto roy, c-1/33, sf4, dlf ankur vihar, loni, ghaziabad., Loni, Ghaziabad, Delhi NCR",900,28.738864,77.263605,2,2,1.0,,Individual House,2444
162800.0,"B3 Tower, Sector 52, Gurgaon, Delhi NCR",2050,28.44359907502,77.0798618095476,3,4,4.0,,Flat,7219
522500.0,"sector 48 Gurgaon, Sohna Road, Gurgaon, Delhi NCR",4600,28.4124748256981,77.039877,5,6,2.0,,Flat,10326
104500.0,"332 A, Tower - 32, Gulmohur Greens, Mohan Nagar, Ghaziabad, Uttar Pradesh, Pin - 201005, Gulmohur Greens, Ghaziabad, Delhi NCR",1775,28.686595916748047,77.3729476928711,3,3,3.0,2.0,Flat,5352
32450.0,"H2-1101., Bhopura, Ghaziabad, Delhi NCR",1050,28.7264530405965,77.3373385265705,2,2,,1.0,Flat,2809
28050.0,"JC-34, Ground Floor, Khirki Extention, Malviya Nagar, New Delhi, Khirki extension, New Delhi - South, Delhi NCR",675,28.5315337,77.216852,2,2,,,Flat,3777
49500.0,"Noida Extension, Greater Noida, Delhi NCR",1162,28.532593,77.399792,3,2,4.0,,Flat,3872
38279.989,"Mahavir Enclave Part 1, New Delhi - Dwarka, Delhi NCR",700,28.5980365,77.0765245,2,2,2.0,,Flat,4971
59400.0,"Ace aspire, Noida Extension, Noida, Delhi NCR",1160,28.5894599721197,77.429712,2,2,3.0,,Flat,4655
79200.0,"Flat No 701 Tower 3 Floor 7 Sec 48 Faridabad, Sector 48, Faridabad, Delhi NCR",2095,28.410634342974,77.2862061141823,4,3,2.0,2.0,Flat,3436
52360.0,"GH 04, Sector 16C, Gaur City 2, Greater Noida, Uttar Pradesh 201318, Noida Extension, Noida, Delhi NCR",1190,28.620768,77.425805,2,2,3.0,1.0,Individual House,4000
35200.0,"Sector 49 Faridabad, Sector 49, Faridabad, Delhi NCR",810,28.34562110900879,77.32642364501953,3,2,1.0,,Flat,3950
115500.0,"Plot No. GH 03/A, Sector 143, Noida, Uttar Pradesh 201306, Sector 143 B, Noida, Delhi NCR",1695,28.50320625305176,77.42758178710938,3,3,3.0,2.0,Individual House,6194
42900.0,"Sector 137, Noida, Delhi NCR",825,28.5073636,77.4091,2,2,,,Flat,4727
137500.0,"Sector 88A, Gurugram, Haryana, Sector 88A, Gurgaon, Delhi NCR",1850,28.43058099,76.94862,3,3,4.0,2.0,Flat,6756
76559.989,"Sector 143, Noida, Delhi NCR",1340,28.502597,77.428742,3,3,,,Flat,5194
30250.0,"Dream Homes Nh24, NH 24, Ghaziabad, Delhi NCR",850,28.638572692871094,77.43085479736328,2,2,2.0,,Flat,3235
385000.0,"Sector 50, Noida, Delhi NCR, Sector 50, Noida, Delhi NCR",8500,28.57150077819824,77.37000274658203,10,7,7.0,3.0,Individual House,4117
84700.0,"Gurgaon - Faridabad Road, Gurgaon, Delhi NCR",1380,28.436305,77.13605,2,2,3.0,1.0,Individual House,5579
66000.0,"Ghaziabad kaushambi, Kaushambi, Ghaziabad, Delhi NCR",1300,28.6390639,77.3242583,2,2,3.0,1.0,Flat,4615
66000.0,"plot number 34 block H10 vatika Emelia floors sector 82 gurgaon, Sector 82, Gurgaon, Delhi NCR",1000,28.49747657775879,77.0271224975586,2,2,2.0,1.0,Flat,6000
49500.0,"Second Floor with roof, Sector 5 Vaishali, Ghaziabad, Delhi NCR",1000,28.643642,77.34532,2,2,2.0,,Flat,4500
66000.0,"Chiranjeev Vihar, Ghaziabad, Chiranjiv Vihar, Ghaziabad, Delhi NCR",1350,28.675872,77.474266,3,2,3.0,1.0,Flat,4444
93500.0,"Prateek Grand City, Siddharth Vihar, Ghaziabad, Siddhartha Vihar, Ghaziabad, Delhi NCR",1380,28.646286,77.406051,3,2,5.0,1.0,Flat,6159
82500.0,"S 485 School block Shakarpur Delhi India, Shakarpur, New Delhi - East, Delhi NCR",1170,28.6865234375,77.29961395263672,3,2,1.0,2.0,Flat,6410
50600.0,"Kiran Garden, New Delhi - West, Delhi NCR",936,28.61848831176757,77.04781341552734,3,2,,,Flat,4914
60500.0,"Sector 86, Faridabad, Delhi NCR",1646,28.409642442543,77.3394093097949,3,3,,,Flat,3341
60500.0,"Kamla Nagar, New Delhi - North, Delhi NCR",1000,28.68645095825196,77.29950714111328,3,2,1.0,1.0,Flat,5500
73590.0,"Sector 80, Faridabad, Delhi NCR",1625,28.3751182042664,77.3487447637588,3,2,,1.0,Individual House,4116
49500.0,"Sector 7, Gurgaon, Delhi NCR",800,28.4658641,77.0133095,2,2,,,Individual House,5625
83600.0,"Sector 107, Gurgaon, Sector 107, Gurgaon, Delhi NCR",1534,28.514908,76.974388,3,2,4.0,1.0,Flat,4954
99000.0,"vaishali Ghaziabad, Sector 3 Vaishali, Ghaziabad, Delhi NCR",1675,28.641557693481445,77.34053802490234,3,2,3.0,1.0,Flat,5373
26950.0,"sec 5 Vasundhara Ghaziabad, Sector 5 Vasundhara, Ghaziabad, Delhi NCR",710,28.63623237609864,77.43350982666016,2,2,1.0,,Individual House,3450
59400.0,"C-16, Greater Noida, Delhi NCR",1290,28.453581,77.556221,2,2,3.0,,Individual House,4186
106700.0,"Flat no. 703 7th Floor  Multistorey Appartmemt Tower Alpine Divine Meadows Sector 108 Noida 201301, Sector 108, Noida, Delhi NCR",1758,28.525440190628448,77.37445081275675,3,4,3.0,,Flat,5517
93500.0,"Sector 93Noida parsvanath srishti, Sector 93, Noida, Delhi NCR",1569,28.5185331699767,77.3868441507347,3,3,3.0,2.0,Flat,5417
88000.0,"New krishna nagar, gali no-5 near radheypuri jain mandir, Krishna Nagar, New Delhi - East, Delhi NCR",1488,28.68657112121582,77.29962921142578,3,2,1.0,,Flat,5376
46200.0,"Ajnara Le Garden Greater Noida West, Greater Noida West, Greater Noida, Delhi NCR",1245,28.606945,77.455578568448,3,2,3.0,,Flat,3373
60500.0,"Ashoka Enclave Part 3, Faridabad, Delhi NCR",1200,28.470754,77.308632,3,2,1.0,,Flat,4583
220000.0,"Sector 52  Gurgaon, Sector 52, Gurgaon, Delhi NCR",3250,28.4359934738699,77.0903169926199,4,4,4.0,2.0,Flat,6153
110000.0,"302, pearl square., Vaishali, Ghaziabad, Delhi NCR",1850,28.645225,77.342198,3,3,2.0,,Individual House,5405
71500.0,"Mohan Garden, Uttam Nagar, Mohan Garden, New Delhi - West, Delhi NCR",1350,28.6330645,77.0331715,4,4,1.0,,Flat,4814
149600.0,"Sector 70A, Gurgaon, Sector 70A, Gurgaon, Delhi NCR",2150,28.383489,77.020563,3,3,3.0,2.0,Individual House,6325
163900.0,"Efp-iii-37-0202., Sector 65, Gurgaon, Delhi NCR",1650,28.397952,77.069057,3,3,3.0,1.0,Individual House,9030
115500.0,"GGN 01 0202 Sector 102 Gurgaon, Sector 102, Gurgaon, Delhi NCR",1650,28.47631072998047,76.97161102294922,3,3,2.0,1.0,Flat,6363
121000.0,"Plot no 46-47, Pocket size, Rohini Sector 21, Sector 21 Rohini, New Delhi - Rohini, Delhi NCR",1215,28.7141266,77.0676456,4,3,2.0,,Flat,9053
335500.0,"New Delhi, Meera Bagh, New Delhi - West, Delhi NCR",2700,28.6575870513916,77.0895767211914,4,3,2.0,,Flat,11296
93500.0,"f-801, Sector 78, Noida, Delhi NCR",1345,28.560232,77.3886066876544,3,2,3.0,,Flat,6319
264000.0,"D-252, Sushant Lok-2 Golf course road gurugram, Gurgaon, Sushant Lok 2, Gurgaon, Delhi NCR",3050,28.345632553100582,77.32644653320312,4,4,3.0,7.0,Flat,7868
83600.0,"sector 37C gurgaon, Sector 37C, Gurgaon, Delhi NCR",1600,28.44926,76.98476024,3,3,3.0,1.0,Flat,4750
495000.0,"T tower, Dlf City Phase 4, Gurgaon, Delhi NCR",4064,28.464031,77.0854754271584,4,5,5.0,3.0,Flat,11072
71500.0,"Rz- 89/A, Nand vihar Near Dwarka Metro Station, Dwarka New Delhi -78, Sector 16 Dwarka, New Delhi - Dwarka, Delhi NCR",1100,28.6347713470459,77.04911041259766,3,2,3.0,,Flat,5909
115500.0,"F-479, Sarita Vihar Pocket F, New Delhi - South, Delhi NCR",1100,28.5336945,77.295901,2,2,,1.0,Flat,9545
330000.0,"183 flat no.3 tower 1 floor 8th Windsor GreensSector 50 Noida 201301, Sector 50, Noida, Delhi NCR",4500,28.578346,77.3736925785826,7,5,2.0,2.0,Flat,6666
165000.0,"New Delhi, Gurgaon, Delhi NCR",2160,28.70186233520508,77.14009857177734,3,3,3.0,,Flat,6944
33000.0,"Loni, Ghaziabad, Delhi NCR",785,28.7662162,77.2705047,2,2,,,Flat,3821
115500.0,"Swarnnagari, Greater Noida, Swarnnagari, Greater Noida, Delhi NCR",2600,28.4588790608948,77.5227112396079,3,4,4.0,3.0,Flat,4038
181500.0,"Sector 45, Noida, Delhi NCR",2465,28.548787,77.346032,4,4,4.0,,Flat,6693
62699.99999999999,"Greater Noida West, Greater Noida, Sector 16, Greater Noida, Delhi NCR",1661,28.60477828979492,77.45191192626953,3,3,3.0,,Flat,3431
61600.0,"Bhopura, Ghaziabad, Delhi NCR",1655,28.7005505,77.3286995,3,3,,,Flat,3383
25300.0,"New Delhi, Dwarka Mor, New Delhi - West, Delhi NCR",585,28.61931610107422,77.03326416015625,2,2,1.0,,Flat,3931
170500.0,"144., Sector 4 Dwarka, New Delhi - Dwarka, Delhi NCR",1600,28.60241996,77.05425039,3,2,1.0,2.0,Flat,9687
77000.0,"Sector 82, Gurgaon, Delhi NCR",1133,28.38981649,76.969342,2,2,3.0,,Flat,6178
34650.0,"Bhopura, Ghaziabad, Bhopura, Ghaziabad, Delhi NCR",1050,28.7264530405965,77.3373385265705,2,2,3.0,,Flat,3000
110000.0,"Ramprastha Edge Towers, Dwarka Expressway, Gurgaon, Delhi NCR",1650,28.44837760925293,76.96952819824219,3,3,2.0,,Flat,6060
37400.0,"near IGNOU University, Neb Sarai, New Delhi - South, Delhi NCR",720,28.50693702697754,77.20652770996094,2,2,1.0,,Flat,4722
387200.0,"903., Behrampur, Gurgaon, Delhi NCR",2985,28.410913,77.107908,3,3,2.0,2.0,Flat,11792
55000.0,"G1104 Brave hearts Rajnagar extension Ghaziabad, Raj Nagar Extension, Ghaziabad, Delhi NCR",1350,28.7068974705185,77.429488,3,2,3.0,,Flat,3703
35200.0,"Govindpuram, Ghaziabad, Delhi NCR",835,28.617142,77.438927,3,2,2.0,,Flat,3832
107800.0,"H 304., Sector 70, Noida, Delhi NCR",1839,28.59594917297364,77.38369750976562,3,4,4.0,,Flat,5328
53680.0,"Raj Nagar Extension, Ghaziabad, Garhi, Ghaziabad, Delhi NCR",1180,28.635957717895508,77.43235778808594,2,2,3.0,1.0,Individual House,4135
35200.0,"Village Sheikh Sarai, Nr Reliance Fresh.  New Delhi-110017, Savitri Nagar Village, New Delhi - South, Delhi NCR",650,28.5398139,77.2186828,2,2,1.0,,Individual House,4923
58300.0,"Sector 143, Noida, Delhi NCR",1175,28.500621,77.424203,2,2,,,Flat,4510
57750.0,"A-1625., Greenfields Colony Block A, Faridabad, Delhi NCR",1100,28.465711,77.2962675,2,2,1.0,1.0,Flat,4772
60500.0,"plot 131 flat ff3 Gyan khand 1 Indirapuram Ghaziabad, Gyan Khand 1, Ghaziabad, Delhi NCR",1400,28.64177894592285,77.35029602050781,3,2,1.0,,Flat,3928
55000.0,"Sector 34, Noida, Delhi NCR",1000,28.58390998840332,77.36087036132812,2,2,,,Flat,5000
268400.0,"Naraina, New Delhi - West, Delhi NCR",2000,28.631580352783203,77.14045715332031,3,3,1.0,1.0,Flat,12200
47300.0,"Mahavir Enclave Part 1, New Delhi - Dwarka, Delhi NCR",880,28.5980365,77.0765245,2,2,,1.0,Flat,4886
38500.0,"vikas vihar New Delhi, Uttam Nagar East, New Delhi - West, Delhi NCR",700,28.634769439697266,77.04902648925781,3,2,1.0,1.0,Individual House,5000
137500.0,"A-601., Sector 77, Gurgaon, Delhi NCR",2000,28.387227,76.980183,3,3,4.0,,Flat,6250
187000.0,"EARTH UMIYA SADAN, PATEL CGHS, SECTOR 4, DWARKA, Sector 4 Dwarka, New Delhi - Dwarka, Delhi NCR",1500,28.6014647960921,77.0524147268374,3,3,3.0,2.0,Flat,11333
29150.0,"Plot no 3 SPS Homes 1st Floor  Flat No 001 Ashok vihar Phase 2 Gurgaon, Ashok Vihar Phase 2, Gurgaon, Delhi NCR",540,28.4838094,77.027832,2,2,1.0,,Individual House,4907
88000.0,"Sector 32 Sohna, Gurgaon, Delhi NCR",1093,28.283756,77.079837,2,2,,,Flat,7319
44000.0,"flat No. F1 Plot No. 34 First Floor Vikram Enclave Shalimar Garden Extn. Distt. Ghaziabad ., Vikram Enclave, Ghaziabad, Delhi NCR",1100,28.668643951416016,77.47614288330078,3,2,2.0,2.0,Flat,3636
27500.0,"Vijay Enclave, New Delhi - West, Delhi NCR",600,28.60611724853516,77.0787582397461,2,2,2.0,1.0,Flat,4166
275000.0,"B - 35, South City 2, Sector 49, Gurgaon, South City 2, Gurgaon, Delhi NCR",2700,28.41772079467773,77.05281066894531,4,5,4.0,,Individual House,9259
121000.0,"Tilak Nagar, New Delhi - West, Delhi NCR",1000,28.6387296,77.0941045,2,2,2.0,6.0,Individual House,11000
125399.989,"Shaheed Budh Ram Singh Marg, Abhimanyu Appartment, Vasundhara Enclave, New Delhi, Vasundhara Enclave, New Delhi - East, Delhi NCR",1400,28.6013562305396,77.3193583454046,3,3,,,Individual House,8142
60500.0,"L-., Ahinsa Khand 1, Ghaziabad, Delhi NCR",1146,28.640515,77.376783,2,2,2.0,,Flat,4799
116600.0,"Mahagun Merabella Sector 79 Noida Uttar Pradesh 201301, Sector 79, Noida, Delhi NCR",1730,28.588912963867188,77.32035827636719,3,3,3.0,,Flat,6127
121000.0,"B113, ground floor, ardee city sector 52 Gurgaon, Sector 52, Gurgaon, Delhi NCR",1500,28.44207,77.075517,4,4,2.0,,Flat,7333
80850.0,"Ajnara Daffodil Sector 137 Noida, Sector 137, Noida, Delhi NCR",1435,28.58905982971192,77.32012939453125,3,2,4.0,,Flat,5121
55000.0,"Omicron 3, Greater Noida, Delhi NCR",1395,28.474501,77.553187,3,2,,2.0,Flat,3584
41800.0,"Indirapuram, Ghaziabad, Delhi NCR",887,28.6493479,77.3696259,2,2,,,Flat,4284
55000.0,"Bhopura, Ghaziabad, Delhi NCR",1290,28.728555,77.337353,3,2,5.0,,Flat,3875
71500.0,"221222 2nd Floor Pocket 1 Sector 25 Rohini Delhi 110085, Rohini, New Delhi - Rohini, Delhi NCR",862,28.63477325439453,77.0490951538086,3,3,2.0,4.0,Individual House,7540
34100.0,"Raj Nagar Extension, Ghaziabad, Raj Nagar Extension, Ghaziabad, Delhi NCR",1075,28.7110974928065,77.4173944062228,2,2,2.0,1.0,Flat,2883
99000.0,"Aditya celebrity Homes Sector 76Noida, Sector 76, Noida, Delhi NCR",1660,28.575371,77.3843750590211,3,4,3.0,1.0,Flat,5421
121000.0,"sector 150, noida, Sector 150, Noida, Delhi NCR",2000,28.42491581294641,77.486721,3,4,3.0,2.0,Flat,5500
165000.0,"G-50, 2nd Floor, East Of Kailash, New Delhi-110065, East Of Kailash, New Delhi - South, Delhi NCR",1350,28.5573445,77.2508955,3,2,1.0,,Flat,11111
148500.0,"Plot No. 25 I.P. Extn Delhi India, Indraprastha Extension, New Delhi - East, Delhi NCR",1850,28.6232998,77.29979,4,3,1.0,2.0,Flat,7297
264000.0,"173 2nd Floor Sukhdev Vihar, new delhi, Sukhdev Vihar, New Delhi - South, Delhi NCR",2000,28.5538385,77.2740986,3,3,3.0,2.0,Flat,12000
66000.0,"Jubilant Tower, Sector 143 B, Noida, Delhi NCR",1150,28.495486,77.25219,2,2,,1.0,Flat,5217
412500.0,"J 11 Saket New Delhi, J Block-Saket, New Delhi - South, Delhi NCR",2800,28.496801376342773,77.2285385131836,4,4,,3.0,Flat,13392
65449.99999999999,"Paras Tierea sector 137 Noida, Sector 137, Noida, Delhi NCR",1330,28.588842391967773,77.3203125,3,2,,1.0,Flat,4473
56540.0,"Raj Nagar Extension, Ghaziabad, Delhi NCR",1360,28.7040534,77.4373305,3,2,,,Flat,3779
99000.0,"B207-08., Sector 70A, Gurgaon, Delhi NCR",1600,28.389346,77.018875,3,3,2.0,,Individual House,5625
38500.0,"West Guru Angad Nagar, Laxmi Nagar District Centre, New Delhi - East, Delhi NCR",625,28.6288811,77.2771884,2,2,1.0,,Flat,5600
247500.0,"C-116 Ground floor front portion inderpuri new Delhi 110012, Inderpuri, New Delhi - West, Delhi NCR",1800,28.62617874145508,77.14634704589844,3,3,,2.0,Flat,12500
74800.0,"Indirapuram, Ghaziabad, Indirapuram, Ghaziabad, Delhi NCR",1095,28.6352719273543,77.370394643261,2,2,2.0,1.0,Flat,6210
242000.0,"South City 2, South City 2, Gurgaon, Delhi NCR",3500,28.41772,77.05281,4,4,4.0,2.0,Flat,6285
121000.0,"dwarka, Sansad Vihar, New Delhi - Dwarka, Delhi NCR",1150,28.6053976726683,77.0506656579695,2,2,2.0,3.0,Flat,9565
92400.0,"SG.1/705, Saya Gold Avenue Indrapuram., Indirapuram, Ghaziabad, Delhi NCR",1080,28.6352719273543,77.370394643261,2,2,,1.0,Flat,7777
231000.0,"Paschim Vihar Block A3, New Delhi - West, Delhi NCR",1600,28.672126,77.1042374,3,2,1.0,11.0,Flat,13125
137500.0,"F Block, Gangotri Apartment, Vikaspuri, New Delhi, Vikaspuri, New Delhi - West, Delhi NCR",1110,28.6424511631066,77.0684764871488,3,3,3.0,2.0,Flat,11261
62699.99999999999,"D block Kaushambi Ghaziabad, Kaushambi, Ghaziabad, Delhi NCR",1100,28.6420559,77.323499,2,2,1.0,1.0,Flat,5181
44000.0,"Sector 89, Faridabad, Sector 89, Faridabad, Delhi NCR",1080,28.4237892,77.3705248,3,2,2.0,,Flat,3703
165000.0,"Indraprastha encalave, Sector 17 Dwarka, New Delhi - Dwarka, Delhi NCR",1350,28.59210777282715,77.02819061279297,3,3,1.0,,Flat,11111
44000.0,"Koyal Enclave, Bhopura, Ghaziabad, Delhi NCR",1080,28.694223,77.4519,2,2,2.0,,Individual House,3703
57200.0,"Sector 89, Faridabad, Sector 89, Faridabad, Delhi NCR",1585,28.4160962813136,77.364809703776,3,3,2.0,,Flat,3280
30800.0,"Omicron 1, Greater Noida, Delhi NCR",870,28.4585848688924,77.5609127744684,2,2,2.0,1.0,Flat,3218
88000.0,"Sector 82, Faridabad, Sector 82, Faridabad, Delhi NCR",2032,28.3938425,77.3506549,3,4,4.0,1.0,Flat,3937
275000.0,"MG Road  Sector 28  Gurgaon, M G Road, Gurgaon, Delhi NCR",2734,28.476479,77.073757,4,4,4.0,1.0,Flat,9144
152899.989,"J3/46B, 3rd Floor, Rajouri Garden, New Delhi - West, Delhi NCR",1440,28.643348693847656,77.12055969238281,3,4,1.0,,Individual House,9652
165000.0,"D-49, sector- 08, Dwarka, Sector 8 Dwarka, New Delhi - Dwarka, Delhi NCR",1900,28.5712739,77.07314,3,3,1.0,1.0,Flat,7894
203500.0,"Sector 9 Rohini, New Delhi - Rohini, Delhi NCR",1250,28.7122271523308,77.1233781129008,3,2,,2.0,Flat,14800
33000.0,"Pratap vihar Ghaziabad, Sector 12 Pratap Vihar, Ghaziabad, Delhi NCR",700,28.6362247467041,77.43367004394531,2,2,2.0,,Flat,4285
49500.0,"Avenue 69 Sector 69 Gurgaon, Sector 69, Gurgaon, Delhi NCR",1000,28.345653533935547,77.32646179199219,2,2,2.0,2.0,Flat,4500
63799.99999999999,"26/44 second floor patel nagar New Delhi 110008, Patel Nagar West, New Delhi - West, Delhi NCR",900,28.65242958068848,77.16432189941406,2,2,2.0,1.0,Flat,6444
258500.0,"Sector 4, Gurgaon, Delhi NCR",3200,28.47489356994629,77.00980377197266,4,5,5.0,2.0,Flat,7343
51700.0,"Bhgwati Garden Exctention Dwarka Mor New Delhi, Dwarka Mor, New Delhi - West, Delhi NCR",1110,28.63481330871582,77.04915618896484,3,2,2.0,1.0,Flat,4234
187000.0,"Dwarka Sector 6, New Delhi, Sector 6 Dwarka, New Delhi - Dwarka, Delhi NCR",1500,28.59344,77.065951,4,2,1.0,,Flat,11333
57200.0,"D-24 B, Second Floor, Street No 4 Radheypuri, Krishna Nagar, Delhi 110091, Krishna Nagar, New Delhi - East, Delhi NCR",750,28.68640518188477,77.2997055053711,2,2,2.0,2.0,Flat,6933
110000.0,"Express Greens Sector 1, Vaishali, Ghaziabad, Delhi NCR, India., Vaishali, Ghaziabad, Delhi NCR",1710,28.6441755,77.336519,3,3,5.0,,Flat,5847
82500.0,"Sector 68, Gurgaon, Delhi NCR",1220,28.386791,77.049466,2,2,3.0,,Flat,6147
46200.0,"H-Tower, Greater Noida West, Greater Noida, Delhi NCR",1040,28.605958,77.444512,2,2,2.0,1.0,Flat,4038
132000.0,"Mayur Vihar 1, New Delhi - East, Delhi NCR",1600,28.686429977416992,77.29959106445312,4,4,2.0,1.0,Flat,7500
46200.0,"NH 24, Ghaziabad, NH 24, Ghaziabad, Delhi NCR",1135,28.66288,77.47096,2,2,3.0,1.0,Individual House,3700
154000.0,"Ground Floor Sector 2 Vaishali Ghaziabad, Vaishali, Ghaziabad, Delhi NCR",2000,28.6362419128418,77.43365478515625,4,4,1.0,2.0,Flat,7000
69300.0,"78-R New Colony, New Colony, Gurgaon, Haryana, New Colony, Gurgaon, Delhi NCR",900,28.46552467346192,77.01718139648438,2,2,1.0,2.0,Flat,7000
302500.0,"Har1503., Indirapuram, Ghaziabad, Delhi NCR",3332,28.382828,77.221297,4,5,8.0,2.0,Flat,8253
117700.0,"Plot 10/1, Block A, Vaibhav Khand, Indirapuram, Ghaziabad, Uttar Pradesh, Vaibhav Khand, Ghaziabad, Delhi NCR",1480,28.6352719273543,77.370394643261,3,2,2.0,,Flat,7229
30800.0,"P 1204., Raj Nagar Extension, Ghaziabad, Delhi NCR",930,28.708744,77.417028,2,2,3.0,1.0,Flat,3010
176000.0,"DDA Pocket 1, Sector 7 Dwarka, New Delhi - Dwarka, Delhi NCR",1500,28.600675,77.03042,3,2,3.0,5.0,Flat,10666
27500.0,"Shree Radhey Apartment  Near mangalam store Ward No-03, Mehrauli, New Delhi-110030, Mehrauli, New Delhi - South, Delhi NCR",700,28.5201861,77.179158,2,2,1.0,1.0,Flat,3571
97900.0,"Siddhartha Vihar, Ghaziabad, Siddhartha Vihar, Ghaziabad, Delhi NCR",1585,28.646286,77.406051,3,3,4.0,1.0,Flat,5615
52800.0,"Block F, Beta II, Rampur Jagir, Greater Noida., Beta 2, Greater Noida, Delhi NCR",1225,28.48515,77.51401,3,2,2.0,1.0,Flat,3918
115500.0,"Sector 37D, Gurgaon., Sector 37D, Gurgaon, Delhi NCR",1817,28.45251307,76.97627035,3,3,3.0,203.0,Flat,5778
68200.0,"Sector 76, Noida, Sector 76, Noida, Delhi NCR",1315,28.5654147528131,77.383196,3,2,5.0,1.0,Flat,4714
70400.0,"Sector 137 Noida, Sector 137, Noida, Delhi NCR",1277,28.508174896240234,77.40982055664062,3,2,4.0,1.0,Individual House,5011
48400.0,"Sewak Park, Dwarka More, Uttam Nagar, New Delhi, Sewak Park, New Delhi - Dwarka, Delhi NCR",900,28.500947952270508,77.23358154296875,3,2,1.0,1.0,Flat,4888
63799.99999999999,"Sector 118, Sector 118, Noida, Delhi NCR",1260,28.584165020633,77.4064917144491,2,2,3.0,,Flat,4603
104500.0,"Prateek wisteria Sector 77Noida, Sector 77, Noida, Delhi NCR",1560,28.5715378443018,77.3896222832981,3,3,3.0,2.0,Flat,6089
517000.0,"house number 218 HUDA Plots Gate 14 Yoga Park sector 56 gurgaon, Sector 56 Block E, Gurgaon, Delhi NCR",4500,28.497467041015625,77.02713012695312,3,3,,2.0,Flat,10444
93500.0,"Krishna Nagar-Safdarjung Enclave, New Delhi - South, Delhi NCR",920,28.563751220703125,77.18978881835938,2,2,1.0,1.0,Flat,9239
165000.0,"Trinity Homes, Ansal Esencia API, Block F, Sector 67, Gurgram, Haryana, Sector 67, Gurgaon, Delhi NCR",2400,28.386594772338867,77.06057739257812,4,4,2.0,10.0,Flat,6250
33000.0,"C block, Mahavir Enclave Part 3, New Delhi - Dwarka, Delhi NCR",670,28.606044,77.070474,2,2,2.0,,Flat,4477
330000.0,"Block C, Sushant Lok 2, Gurgaon, Delhi NCR",4000,28.42304992675781,77.08740997314453,4,4,4.0,,Individual House,7500
25850.0,"DLF Dilshad extension 2 Ghaziabad, DLF Dilshad Extention II, Ghaziabad, Delhi NCR",710,28.63630485534668,77.43389892578125,2,2,1.0,,Flat,3309
165000.0,"Al/277 2nd floor with roof right, Sushant Lok 2, Gurgaon, Delhi NCR",1800,28.42304992675781,77.08740997314453,3,3,2.0,1.0,Flat,8333
85800.0,"Sector 79, Gurgaon, Sector 79, Gurgaon, Delhi NCR",1295,28.35911846,76.975628,2,2,4.0,,Individual House,6023
157300.0,"first floor orchid island sector 51 gurgaon, Sector 51, Gurgaon, Delhi NCR",1650,28.429071,77.068974,4,4,2.0,1.0,Flat,8666
58300.0,"G T Road, Ghaziabad, G T Road, Ghaziabad, Delhi NCR",1125,28.679009,77.3492951427093,2,2,2.0,,Flat,4711
28600.0,"Raj Nagar Extension, Ghaziabad, Delhi NCR",800,28.7045152890992,77.4192455317336,2,2,,,Flat,3250
121000.0,"Vasundhara Enclave, New Delhi - East, Delhi NCR",1400,28.5982193809278,77.3118266563848,3,2,2.0,2.0,Flat,7857
93500.0,"368 subhash Nagar., Subhash Nagar, New Delhi - West, Delhi NCR",900,28.74278450012207,77.13809204101562,2,2,2.0,,Individual House,9444
187000.0,"DLF City Phase 1, DLF City Phase 2, Gurgaon, Delhi NCR",2150,28.43108,77.055414,3,3,2.0,,Flat,7906
156200.0,"Dwarka Sector 23, New Delhi, Sector 23 Dwarka, New Delhi - Dwarka, Delhi NCR",1850,28.5632906171692,77.0506741434345,3,3,3.0,2.0,Flat,7675
60500.0,"Homes Sai Ram Apartments, Sector 28 Dwarka, New Delhi - Dwarka, Delhi NCR",1200,28.634742736816406,77.04914855957031,3,2,2.0,,Flat,4583
37400.0,"gali no 3, Mahavir Enclave Part 1, New Delhi - Dwarka, Delhi NCR",600,28.59803581237793,77.07652282714844,2,2,1.0,,Flat,5666
79200.0,"Flat No. G4 Building No . J1/13  Gupta Coloney, Khirki Extension Near Malviya Nagar New Delhi 110017, Khirki extension, New Delhi - South, Delhi NCR",1250,28.49677085876465,77.22854614257812,3,2,2.0,,Flat,5760
95700.0,"Sector 77, Gurgaon, Sector 77, Gurgaon, Delhi NCR",1450,28.387426,76.979751,3,3,3.0,2.0,Flat,6000
101200.0,"Sector 70A, Gurgaon, Delhi NCR",1420,28.385432,77.017122,2,2,3.0,,Flat,6478
41800.0,"Migsun Ultimo Greater Noida, Omicron 3, Greater Noida, Delhi NCR",1005,28.474501,77.553187,2,2,1.0,2.0,Flat,3781
467500.0,"Sector 30 gurgaon, Sector 30, Gurgaon, Delhi NCR",4500,28.46195602416992,77.05679321289062,3,5,4.0,2.0,Flat,9444
71500.0,"Noida Extension, Greater Noida, Delhi NCR",1620,28.605958,77.444512,3,3,3.0,,Flat,4012
84150.0,"6, Vaibhav Khand, Indirapuram, Indirapuram, Ghaziabad, Delhi NCR",1168,28.641073,77.368012,3,2,3.0,,Flat,6549
49500.0,"Sector 133, Noida, Delhi NCR",1107,28.5051230169232,77.371256,2,2,4.0,,Individual House,4065
93500.0,"Eldeco green meadows, Sector-Pi, Greater Noida, Delhi NCR",1510,28.4706451115093,77.5373190779192,3,3,2.0,,Flat,5629
258500.0,"Pocket-C, Block-8, Sector-17, Near Axis Bank, Dwarka, New Delhi, Dwarka, New Delhi - Dwarka, Delhi NCR",1800,28.63479232788086,77.04915618896484,4,3,2.0,2.0,Individual House,13055
49500.0,"Omicron I, 130 Meter Road, Greater Noida, Uttar Pradesh 201310, Omicron 1, Greater Noida, Delhi NCR",955,28.4626703284033,77.5583025174588,2,2,,,Flat,4712
69080.0,"Noida Extension, Noida, Delhi NCR",1500,28.605958,77.444512,3,3,,,Flat,4186
152899.989,"Sector 28, Gurgaon, Delhi NCR",2060,28.47474670410156,77.08303833007812,3,3,2.0,,Flat,6747
90200.0,"Sector 78, Noida, Sector 78, Noida, Delhi NCR",1550,28.563989,77.388607,3,3,5.0,1.0,Flat,5290
144100.0,"26/165 3rd Floor with Terrace 125 sq. yds., Vikram Vihar, New Delhi - South, Delhi NCR",1200,28.564363,77.2368819,2,2,,,Flat,10916
110000.0,"601, GPL Eden Height, Sector 70, Gurgaon, Delhi NCR",1250,28.3930662,77.022442,2,2,3.0,,Flat,8000
71500.0,"A2 ff., Sector 49, Gurgaon, Delhi NCR",1050,28.412766,77.052239,2,2,3.0,,Flat,6190
49500.0,"Noida Extension, Noida, Delhi NCR",1055,28.605958,77.444512,2,2,2.0,1.0,Flat,4265
159500.0,"Green Home CGHS Plot No 4 Sector 52 Gurgaon, Sector 52, Gurgaon, Delhi NCR",2000,28.438262,77.0793005,3,4,2.0,,Individual House,7250
44000.0,"Ratan Park, New Delhi - West, Delhi NCR",510,28.654545,77.1337505,2,2,2.0,,Flat,7843
467500.0,"C- 85., Sector 39 Block C, Noida, Delhi NCR",5500,28.565963745117188,77.35002899169922,6,7,,5.0,Flat,7727
220000.0,"Puri Diplomatic Green, C2-902, Phase I, Sector 111, Gurgaon, Sector 111, Gurgaon, Delhi NCR",2237,28.5194705,77.027282,3,3,3.0,2.0,Individual House,8940
34100.0,"Yamuna Expressway, Greater Noida, Yamuna Expressway, Greater Noida, Delhi NCR",975,28.3251961394855,77.535202,2,2,3.0,1.0,Flat,3179
52800.0,"Greater Noida West, Greater Noida., Greater Noida West, Greater Noida, Delhi NCR",1245,28.606945,77.455578568448,3,2,4.0,1.0,Flat,3855
73700.0,"3997., Aravali Vihar, Faridabad, Delhi NCR",1250,28.3964215,77.2714966,3,3,2.0,2.0,Flat,5360
137500.0,"Sector 71, Gurgaon, Delhi NCR",2320,28.4087675,77.0228914,3,3,,,Flat,5387
297000.0,"156., Chittaranjan Park, New Delhi - South, Delhi NCR",2200,28.537872314453125,77.24923706054688,4,4,2.0,,Flat,12272
126500.0,"Sector 82, Sector Road, Sector 82, Gurgaon, Delhi NCR",2300,28.395841,76.962664,3,4,,1.0,Flat,5000
99000.0,"Villa no281 panchsheel green2 Noida Extension, Noida Extension, Noida, Delhi NCR",1730,28.561384201049805,77.31790161132812,4,3,3.0,1.0,Flat,5202
49500.0,"Vasundhara Ghaziabad, Sector 5 Vasundhara, Ghaziabad, Delhi NCR",1250,28.636194229125977,77.43363952636719,3,3,3.0,,Flat,3600
32890.0,"Wave City, Ghaziabad, Delhi NCR",840,28.664371,77.488789,2,2,,,Flat,3559
68200.0,"F-6, Alokvihar 2., Sector 50, Noida, Delhi NCR",1300,28.5740724193774,77.3716206325477,3,3,3.0,,Flat,4769
104500.0,"C Block Top Floor, Sector 82, Faridabad, Delhi NCR",2184,28.3970475678259,77.356850157127,4,4,4.0,1.0,Individual House,4349
159500.0,"Nirvana Country, Gurgaon, Delhi NCR",2050,28.407882,77.060044,3,3,,2.0,Flat,7073
137500.0,"Sector 45, Gurgaon, Delhi NCR",1650,28.4446575,77.0670365,3,3,2.0,,Individual House,7575
82500.0,"Q 086., Sector 143, Noida, Delhi NCR",1495,28.502597,77.428742,3,2,3.0,,Flat,5016
132000.0,"Sector 79, Noida, Delhi NCR",1730,28.5645864521315,77.3987635071892,3,3,2.0,,Flat,6936
60500.0,"neqr arjungarh metro station, Aya Nagar, New Delhi - South, Delhi NCR",1100,28.470691680908203,77.12744903564453,3,3,1.0,,Flat,5000
47300.0,"Shalimar garden extension Ghaziabad, Shalimar Garden Extension 2, Ghaziabad, Delhi NCR",1250,28.6356143951416,77.43213653564453,3,2,1.0,1.0,Individual House,3440
52800.0,"Phase 2, Industrial Area, Sector 62, Noida, Uttar Pradesh, Sector 62, Noida, Delhi NCR",1050,28.6160298639118,77.371214419258,2,2,2.0,1.0,Individual House,4571
165000.0,"Mayur Vihar 1, New Delhi - East, Delhi NCR",1350,28.6113012527664,77.2888916483984,3,3,2.0,1.0,Flat,11111
143000.0,"Sector 137, Noida, Sector 137, Noida, Delhi NCR",2275,28.5118341904421,77.4112736653187,4,4,4.0,1.0,Flat,5714
71500.0,"Sikka Karnam Greens sector 143B Noida, Sector 143 B, Noida, Delhi NCR",1150,28.495486,77.25219,2,3,3.0,1.0,Flat,5652
165000.0,"D block, Ardee City, Ardee City, Gurgaon, Delhi NCR",2250,28.44207,77.075517,4,4,2.0,2.0,Flat,6666
34650.0,"Bhopura Ghaziabad, Bhopura, Ghaziabad, Delhi NCR",1050,28.7264530405965,77.3373385265705,2,2,2.0,,Flat,3000
137500.0,"A1701., Sector 92, Gurgaon, Delhi NCR",2120,28.4096109,76.9141943,3,3,3.0,,Flat,5896
45100.0,"Greater Noida West, Greater Noida, Delhi NCR",1185,28.597324,77.441425,4,2,,,Flat,3459
396000.0,"House no.17, Block 3, Charmwood Village, Faridabad, Delhi NCR",3700,28.4923586,77.2894914,6,6,4.0,2.0,Flat,9729
56100.0,"Sector 107, Gurgaon, Sector 107, Gurgaon, Delhi NCR",1050,28.5054485,76.9718027,3,2,2.0,1.0,Flat,4857
49500.0,"D4/22, vashist park, new delhi, 110046, Vashisth Park, New Delhi - West, Delhi NCR",800,28.63474464416504,77.04913330078125,2,2,2.0,,Flat,5625
147400.0,"C02 Spaze Privy Sector 72 Gurgaon, Sector 72, Gurgaon, Delhi NCR",1755,28.4101131446713,77.0334304975182,2,3,2.0,2.0,Flat,7635
121000.0,"House No 298 Sec 7A Faridabad, Sector 7A, Faridabad, Delhi NCR",1800,28.34584617614746,77.32615661621094,4,2,1.0,2.0,Flat,6111
57750.0,"Sultanpur, Sector 128, Noida, Uttar Pradesh 201304, Sector 129, Noida, Delhi NCR",1535,28.524543,77.364765,3,3,2.0,1.0,Flat,3420
159500.0,"Sector 104, Gurgaon, Sector 104, Gurgaon, Delhi NCR",2324,28.48438996,77.00030461,4,5,4.0,,Flat,6239
35200.0,"Najafgarh, New Delhi - West, Delhi NCR",750,28.68643951416016,77.29956817626953,2,2,1.0,1.0,Flat,4266
105600.0,"paras dews  sector106on dwarka expressway gurgaon, Sector 106, Gurgaon, Delhi NCR",1760,28.499602,76.999946,3,4,3.0,2.0,Flat,5454
110000.0,"Sector 89, Gurgaon, Sector 89, Gurgaon, Delhi NCR",1765,28.424505,76.9418971009322,3,3,3.0,,Flat,5665
53350.0,"Sainik Nagar, New Delhi - West, Delhi NCR",1090,28.634746551513672,77.04913330078125,3,2,2.0,,Flat,4449
93500.0,"Techzone IV Greater NoidaWest, Greater Noida, Delhi NCR",1695,28.599573135375977,77.45030212402344,3,4,5.0,1.0,Flat,5014
107800.0,"Sector 70, Gurgaon, Sector 70, Gurgaon, Delhi NCR",1437,28.395680754374,77.0297919921106,3,3,1.0,,Flat,6819
71500.0,"Supertech eccociti Sector 137Noida, Sector 137, Noida, Delhi NCR",1295,28.5118341904421,77.4112736653187,3,2,3.0,1.0,Individual House,5019
73700.0,"Ajnara Daffodil Sector 137 Noida, Sector 137, Noida, Delhi NCR",1277,28.508273,77.4089761622089,2,2,3.0,1.0,Flat,5246
121000.0,"Sector 48, Gurgaon, Sector 48, Gurgaon, Delhi NCR",1500,28.4196316903118,77.1051973969524,3,3,2.0,1.0,Individual House,7333
66000.0,"West Vinod Nagar, New Delhi - East, Delhi NCR",950,28.62456321716309,77.30006408691406,2,2,1.0,,Flat,6315
198000.0,"Flat no. 801 in block D2B at 8th Floor in Pocket 2 Sector 18 B Dwarka Phase -2, New Delhi, Delhi NCR",2200,28.634740829467773,77.04913330078125,3,2,4.0,,Individual House,8181
88000.0,"Awho gurjinder vihar., Chi 2, Greater Noida, Delhi NCR",2000,28.4422095,77.5103249,3,3,,1.0,Flat,4000
82500.0,"REHAZA VEDANTHA SEC 108 Gurgaon, Sector 108, Gurgaon, Delhi NCR",1408,28.512136,76.986899,2,2,2.0,1.0,Individual House,5326
45100.0,"Greater Noida West, Greater Noida, Delhi NCR",1035,28.603156,77.450278,2,2,1.0,,Flat,3961
49390.0,"Siddhartha Vihar, Ghaziabad, Delhi NCR",1135,28.644056,77.393639,2,2,4.0,,Flat,3955
121000.0,"H0805, Raheja Atharva, Sec-109, Dwarka Expressway Gurugram, Dwarka Expressway, Gurgaon, Delhi NCR",1954,28.497459411621094,77.02709197998047,3,3,4.0,2.0,Flat,5629
77000.0,"GH - 03C, Sector 144, Noida, Uttar Pradesh 201306, Sector 144, Noida, Delhi NCR",1355,28.496607,77.439827,3,2,3.0,124.0,Flat,5166
88000.0,"Mahagun Moderne Sector 78 Noida, Sector 78, Noida, Delhi NCR",1290,28.562957,77.3869878873777,2,2,3.0,,Individual House,6201
44000.0,"G T Road, Ghaziabad, Delhi NCR",1200,28.6761797963942,77.3962820106621,2,2,,,Flat,3333
71500.0,"T1/705., Sector 150, Noida, Delhi NCR",1100,28.420393,77.483477,2,2,2.0,1.0,Flat,5909
55000.0,"Sector 137, Noida, Delhi NCR",1285,28.505584,77.410762,3,2,3.0,,Flat,3891
69300.0,"NH 58 -Ghaziabad, NH 58, Ghaziabad, Delhi NCR",1444,28.698376,77.426802,3,2,3.0,,Flat,4362
71500.0,"omicorn 3, Omicron, Greater Noida, Delhi NCR",1875,28.4751606,77.55141449,3,3,2.0,,Flat,3466
159500.0,"Hari Nagar, New Delhi - West, Delhi NCR",1500,28.6197013764725,77.111622131724,3,2,2.0,2.0,Flat,9666
107800.0,"Sunworld vanalika Sector 107Noida, Sector 107, Noida, Delhi NCR",1730,28.5500058156014,77.3758201622555,3,3,3.0,1.0,Individual House,5664
82500.0,"Crossings Republik, Ghaziabad, Delhi NCR",1690,28.6260159438512,77.4358818168388,3,3,3.0,,Flat,4437
99000.0,"Sector 75, Noida, Delhi NCR",2250,28.574226,77.379658,4,4,4.0,,Flat,4000
87230.0,"Sector 77, Noida, Delhi NCR",1385,28.5715378443018,77.3896222832981,3,3,,,Flat,5725
140800.0,"Sector 77, Gurgaon, Delhi NCR",2025,28.387227,76.980183,3,3,,,Flat,6320
66000.0,"Chudi wali gali mandir wali gali near metro pillar 215., Ranjeet Nagar, New Delhi - West, Delhi NCR",775,28.74281120300293,77.13806915283203,3,2,1.0,,Flat,7741
159500.0,"Kabirdas Marg, Rohit Kunj, Shakurpur Village, Pitam Pura, Delhi, 110034, Pitampura, New Delhi - West, Delhi NCR",1400,28.6901611564381,77.1407243812481,3,2,2.0,1.0,Flat,10357
90200.0,"Bestech Parkview Ananda Sector 81, grugaon, Sector 81, Gurgaon, Delhi NCR",1360,28.39124238,76.9528535,2,2,,787.0,Flat,6029
154000.0,"236, GF & FF, Krishna Nagar, Ram Nagar, Delhi 110051, Krishna Nagar Block H, New Delhi - East, Delhi NCR",2050,28.6572035,77.2843935,4,3,1.0,1.0,Flat,6829
53900.0,"D3-203A, 3rd floor back side, Mahavir Enclave, New Delhi - Dwarka, Delhi NCR",700,28.63486099243164,77.04925537109375,2,2,1.0,,Flat,7000
48400.0,"Sector 3 Rajendra Nagar, Ghaziabad, Delhi NCR",1150,28.68898200988769,77.36444854736328,3,2,2.0,,Flat,3826
159500.0,"2021 Sector 28, Mathura Road, Faridabad, Delhi NCR",2860,28.433361,77.309171,4,4,2.0,3.0,Flat,5069
33000.0,"Greater Noida West, Noida, Delhi NCR",899,28.605958,77.444512,2,2,,,Flat,3337
42900.0,"Raj Nagar Extension Ghaziabad, Raj Nagar Extension, Ghaziabad, Delhi NCR",976,28.7040534,77.4373305,2,2,2.0,,Flat,3995
126500.0,"Sector 107, Noida, Sector 107, Noida, Delhi NCR",1647,28.542912592576,77.37203148936,3,3,3.0,2.0,Flat,6982
63799.99999999999,"Sector 16 Rohini, New Delhi - Rohini, Delhi NCR",700,28.73837280273437,77.12914276123047,2,2,2.0,1.0,Flat,8285
176000.0,"Sector 56, Gurgaon, Delhi NCR",2200,28.4281519262555,77.1008893272678,3,2,,,Flat,7272
110000.0,"Sushant Lok 1, Gurgaon, Delhi NCR",994,28.454191,77.0837996,2,2,,,Individual House,10060
88000.0,"Chi 4, Greater Noida, Chi 4, Greater Noida, Delhi NCR",1710,28.4329494549295,77.517838,3,3,3.0,2.0,Flat,4678
154000.0,"Mayur Vihar 1, New Delhi - East, Delhi NCR",1400,28.6053661,77.2954371,3,3,,1.0,Flat,10000
88000.0,"Niti khand 1, Indirapuram, Ghaziabad, Delhi NCR",1300,28.6493479,77.3696259,3,2,1.0,1.0,Flat,6153
65009.99999999999,"Sector 88, Faridabad, Delhi NCR",1500,28.421008,77.3559275,3,3,,,Flat,3940
38500.0,"Palm Residency, Sector-75 Faridabad, Sector 75, Faridabad, Delhi NCR",1240,28.3716165755856,77.3510179129609,2,2,2.0,1.0,Flat,2822
123200.0,"Antriksh Forest Sector  77 Noida, Sector 77, Noida, Delhi NCR",1870,28.5680204,77.3890864,3,4,3.0,,Flat,5989
94600.0,"Sector 70 Gurgaon, Sector 70, Gurgaon, Delhi NCR",1137,28.395680754374,77.0297919921106,3,2,2.0,2.0,Individual House,7563
149600.0,"DDA SEC19B DWARKA NEW DELHI, Sector 19 Dwarka, New Delhi - Dwarka, Delhi NCR",1400,28.5769715,77.0477254,2,2,2.0,2.0,Flat,9714
242000.0,"B-23., Shivalik Colony, New Delhi - South, Delhi NCR",1800,28.5344181060791,77.20816040039062,3,3,2.0,1.0,Flat,12222
121000.0,"Indirapuram Ghaziabad, Indirapuram, Ghaziabad, Delhi NCR",2200,28.633405685424805,77.43122100830078,3,4,3.0,2.0,Flat,5000
88000.0,"Sector 37C, Gurgaon, Sector 37C, Gurgaon, Delhi NCR",1847,28.44926,76.98476024,4,3,3.0,1.0,Flat,4331
104500.0,"Sector 137, Noida, Delhi NCR",1758,28.509118,77.413416,3,3,3.0,92.0,Flat,5403
61050.0,"Sector 36, Gurgaon, Delhi NCR",1081,28.41831970214844,76.98768615722656,3,3,,,Flat,5134
30800.0,"Gurgaon, Dharam Colony Block E, Gurgaon, Delhi NCR",720,28.50288772583008,77.03587341308594,2,2,1.0,,Flat,3888
60500.0,"416 Shaktikhand 4 ground floor, Indirapuram, Ghaziabad, Delhi NCR, Indirapuram, Ghaziabad, Delhi NCR",1100,28.6493479,77.3696259,3,2,2.0,1.0,Flat,5000
158400.0,"I86 Sector 41, Sector 41, Noida, Delhi NCR",2500,28.589025497436523,77.32013702392578,6,4,1.0,4.0,Flat,5760
60500.0,"Tuntex Tower, Sector 86, Faridabad, Delhi NCR",1575,28.404368478163,77.3360770274415,3,3,3.0,1.0,Flat,3492
88000.0,"Panchachuli Apartments, Sector 61, Noida, Uttar Pradesh, Sector 61, Noida, Delhi NCR",1365,28.5964690540065,77.367227,3,2,2.0,1.0,Individual House,5860
193600.0,"PH 3 OC15 orange county ahinsa khand 1 Indirapuram, Indirapuram, Ghaziabad, Delhi NCR",2511,28.6419128697097,77.361427371387,4,3,2.0,,Flat,7009
38500.0,"Nt 10west uttam nagar, Uttam Nagar, New Delhi - West, Delhi NCR",810,28.63477325439453,77.04914093017578,3,2,1.0,,Flat,4320
62260.0,"9., Sector 143 B, Noida, Delhi NCR",1300,28.4959545,77.4233,3,3,3.0,1.0,Individual House,4353
132000.0,"Sector 104, Gurgaon, Delhi NCR",1550,28.482277,76.99199526,2,2,,1.0,Flat,7741
390500.0,"Sector 150, Noida, Sector 150, Noida, Delhi NCR",4600,28.561989,77.39837,6,3,3.0,2.0,Flat,7717
41470.0,"Siddhartha Vihar, Ghaziabad, Delhi NCR",1055,28.656401,77.405491,2,2,,1.0,Flat,3573
108460.0,"Sector 107, Noida, Delhi NCR",1730,28.5500058156014,77.3758201622555,3,3,,1.0,Flat,5699
211200.0,"Sector 109, Gurgaon, Delhi NCR",2630,28.51083403,77.003159,4,4,,1.0,Individual House,7300
88220.0,"Vaishali, Ghaziabad, Delhi NCR",1515,28.645769,77.38511,3,3,5.0,,Individual House,5293
75570.0,"Sector 150, Noida, Delhi NCR",1404,28.417942,77.487508,3,3,,,Flat,4893
97900.0,"Siddhartha Vihar, Ghaziabad, Delhi NCR",1895,28.65662,77.4048,3,3,,1.0,Flat,4696
176000.0,"Sector 90, Gurgaon, Delhi NCR",2200,28.407361,76.93426176,4,4,,1.0,Flat,7272
423500.0,"Sector 81, Gurgaon, Delhi NCR",4486,28.3884743,76.9470835,4,4,4.0,,Flat,8582
93500.0,"Indirapuram, Ghaziabad, Delhi NCR",1080,28.6493479,77.3696259,2,2,,1.0,Individual House,7870
174900.0,"Indirapuram, Ghaziabad, Delhi NCR",2190,28.6493479,77.3696259,3,3,,2.0,Flat,7260
412500.0,"Sector 81, Gurgaon, Delhi NCR",5840,28.3884743,76.9470835,5,5,4.0,2.0,Flat,6421
90530.0,"Chi 5, Greater Noida, Delhi NCR",1725,28.4301942655176,77.5061330784878,3,3,,,Flat,4771
40150.0,"Siddhartha Vihar, Ghaziabad, Delhi NCR",770,28.6390982,77.412377,2,2,,1.0,Flat,4740
372900.0,"Sector 78, Noida, Delhi NCR",3775,28.5627524499332,77.3824170842337,5,4,,,Flat,8980
250800.0,"Sector 99, Gurgaon, Delhi NCR",2750,28.40178968,77.04549474,3,5,,,Individual House,8290
385000.0,"Sector 121, Noida, Delhi NCR",4455,28.603194,77.402604,4,5,,,Flat,7856
346500.0,"Sector 81, Gurgaon, Delhi NCR",4200,28.39284,76.951139,4,5,,,Flat,7500
220000.0,"Suraj Kund, Faridabad, Delhi NCR",2685,28.469312,77.293483,3,3,,1.0,Individual House,7448
141900.0,"Sector 108, Gurgaon, Delhi NCR",2003,28.513929,76.988788,3,3,,,Flat,6440
95590.0,"Vasundhara sector 15 ghaziabad., Sector 15 Vasundhara, Ghaziabad, Delhi NCR",1725,28.6524441,77.3605216,4,3,2.0,1.0,Flat,5037
60500.0,"NH 24, Ghaziabad, Delhi NCR",1250,28.638572,77.4308515,4,3,,,Flat,4400
36300.0,"Sector 2, Greater Noida, Delhi NCR",855,28.5814311,77.4528192,2,2,,,Flat,3859
385000.0,"dlf phase  2, DLF City Phase 2, Gurgaon, Delhi NCR",3600,28.483604431152344,77.08733367919922,4,4,2.0,5.0,Flat,9722
48400.0,"noida sec-16, Greater Noida West, Noida, Delhi NCR",1475,28.605958,77.444512,3,3,2.0,,Flat,2983
126500.0,"M-1802., Sector 45, Noida, Delhi NCR",1700,28.548787,77.346032,4,4,4.0,1.0,Flat,6764
77000.0,"Indraprastha Colony, Faridabad, Delhi NCR",1300,28.4524215,77.317156,3,2,,1.0,Flat,5384
170500.0,"Sector 38, Gurgaon, Delhi NCR",2000,28.43741226196289,77.04144287109375,3,2,1.0,,Flat,7750
82500.0,"Sector 37C, Gurgaon, Delhi NCR",1365,28.449908,76.9876925,2,2,,1.0,Flat,5494
79200.0,"Sector-77, Noida., Sector 77, Noida, Delhi NCR",1295,28.5720422763446,77.3910687279008,2,2,4.0,1.0,Flat,5559
181500.0,"Sector 81, gurugram, haryana., Sector 81A, Gurgaon, Delhi NCR",2103,28.389485,76.954056,3,4,5.0,3.0,Flat,7845
77000.0,"Sector 62, Noida, Delhi NCR",1200,28.621714,77.369341,3,2,,,Individual House,5833
85800.0,"Sector 70, Gurgaon Haryana, Sector 70, Gurgaon, Delhi NCR",1350,28.394708,77.01856,2,2,1.0,1.0,Flat,5777
36410.0,"Sector 53, Noida, Delhi NCR",950,28.5905383,77.35981,2,2,,,Flat,3484
187000.0,"Malibu Town, Gurgaon, Delhi NCR",2700,28.42242813110352,77.04646301269531,3,3,2.0,,Flat,6296
33000.0,"Sector 2 Rajendra Nagar, Ghaziabad, Delhi NCR",582,28.687614,77.351924,2,2,,,Flat,5154
40700.0,"Greater Noida West, Greater Noida, Delhi NCR",1060,28.605958,77.444512,2,2,,,Flat,3490
115500.0,"Sector 83, Gurgaon, Sector 83, Gurgaon, Delhi NCR",1850,28.395989,76.973879,3,3,4.0,1.0,Flat,5675
27500.0,"DLF Ankur Vihar, Ghaziabad, Delhi NCR",800,28.7379052,77.2673675,2,2,,,Individual House,3125
71500.0,"Shakti Khand 2 Indirapuram Ghaziabad, Indirapuram, Ghaziabad, Delhi NCR",1450,28.647117614746094,77.37123107910156,3,2,1.0,1.0,Flat,4482
110000.0,"J1170 Rajouri garden, Rajouri Garden Extension, New Delhi - West, Delhi NCR",1400,28.63360023498535,77.0987777709961,3,2,,,Flat,7142
46750.0,"Pul Prahlad Pur, New Delhi - South, Delhi NCR",950,28.497529983520508,77.29054260253906,2,2,1.0,,Flat,4473
71500.0,"pilot no E 24 salimar garden ext 2 Ghaziyabad, Shalimar Garden Extension 2, Ghaziabad, Delhi NCR",1650,28.6857996101265,77.3414423841921,3,2,3.0,,Flat,3939
23100.0,"House no B 173 Mahindra enclave shashtri nagar Ghaziabad, Mahindra Enclave, Ghaziabad, Delhi NCR",700,28.676050186157227,77.45023345947266,2,2,,,Flat,3000
36300.0,"401., Gijhore, Noida, Delhi NCR",950,28.5903965,77.3626,2,2,1.0,,Flat,3473
41800.0,"Raj Nagar Extension, Ghaziabad, Delhi NCR",1200,28.7021394384081,77.4071258569451,2,2,2.0,,Individual House,3166
38500.0,"Shanti Nagar, Shanti Nagar, Gurgaon, Delhi NCR",900,28.455087661743164,77.01211547851562,2,2,1.0,1.0,Flat,3888
423500.0,"Sector 107, Noida, Sector 107, Noida, Delhi NCR",4300,28.5466684964452,77.3751950836512,5,5,10.0,2.0,Individual House,8953
51700.0,"Adarsh Nagar, Gurgaon, Delhi NCR",850,28.465377807617188,77.02996063232422,2,2,2.0,2.0,Flat,5529
45100.0,"Shipra Suncity, Ghaziabad, Delhi NCR",760,28.6358105,77.3739109,2,2,,,Flat,5394
41800.0,"Sector 68, Gurgaon, Delhi NCR",630,28.474314,76.98599,2,2,2.0,,Flat,6031
48400.0,"Sahibabad, Ghaziabad, Delhi NCR",1000,28.6644882,77.3474938,3,3,,,Flat,4400
36300.0,"Raj Nagar Extension, Ghaziabad, Delhi NCR",1050,28.7001920400432,77.427474,2,2,,,Flat,3142
79200.0,"Raj Nagar Extension, Ghaziabad, Delhi NCR",1495,28.7040534,77.4373305,3,3,,,Flat,4816
36300.0,"Raj Nagar Extension, Ghaziabad, Delhi NCR",1058,28.7040534,77.4373305,2,2,3.0,,Flat,3119
46200.0,"Sector 4, Greater Noida, Delhi NCR",1175,28.6109351,77.4294948,2,2,,,Flat,3574
143000.0,"C-2-799., Palam Vihar, Gurgaon, Delhi NCR",2200,28.50042532,77.00773017,4,4,2.0,,Flat,5909
71500.0,"Flat No 177, Second Floor with Terrace, Shakti Khand 3, Indirapuram, Shakti Khand 3, Ghaziabad, Delhi NCR",1100,28.6500637,77.3637503,3,2,2.0,3.0,Flat,5909
60500.0,"Dayanand Colony, Gurgaon, Delhi NCR",973,28.472907,77.0210785,2,2,,1.0,Flat,5652
49500.0,"Raj Nagar Extension, Ghaziabad, Delhi NCR",1550,28.7219988470787,77.447746,3,3,,,Flat,2903
110000.0,"Sector 100, Noida, Sector 100, Noida, Delhi NCR",1779,28.5434121846104,77.367853,3,3,4.0,,Individual House,5621
65009.99999999999,"Sector 2 Sohna, Gurgaon, Delhi NCR",1210,28.27197877,77.06665731,2,2,,,Individual House,4884
143000.0,"Kaushambi, Ghaziabad, Delhi NCR",1850,28.6420559,77.323499,3,3,,,Flat,7027
82500.0,"Ghaziabad, Shakti Khand 3, Ghaziabad, Delhi NCR",1300,28.65005874633789,77.36593627929688,3,3,1.0,,Individual House,5769
48950.0,"Gyan Khand 1 Indirapuram Ghaziabad, Indirapuram, Ghaziabad, Delhi NCR",990,28.64032554626465,77.35135650634766,2,2,1.0,1.0,Individual House,4494
53900.0,"B block, Freedom Fighters Enclave, New Delhi - South, Delhi NCR",950,28.5112245450823,77.2027270928168,2,2,,2.0,Flat,5157
214500.0,"Chittaranjan Park, New Delhi - South, Delhi NCR",1600,28.537872314453125,77.24923706054688,3,3,2.0,,Flat,12187
132000.0,"sector 3 vaishali, skytech magadh society, Vaishali, Ghaziabad, Delhi NCR",2000,28.6402742518961,77.3433211933865,3,3,5.0,,Individual House,6000
29700.0,"Pratap vihar ghaziabad, Vijay Nagar Colony, Ghaziabad, Delhi NCR",850,28.64338493347168,77.42422485351562,2,2,1.0,,Flat,3176
176000.0,"Brand new stilt lift gated block, DLF City Phase 2, Gurgaon, Delhi NCR",1700,28.4827938079834,77.0829086303711,3,3,2.0,2.0,Flat,9411
107800.0,"Indirapuram, Ghaziabad, Delhi NCR",1850,28.6493479,77.3696259,4,3,2.0,1.0,Flat,5297
39600.0,"Plot no 36, Flat no. S-3, Sector 5 Rajendra Nagar, Ghaziabad, Delhi NCR",900,28.6809994,77.356998,2,2,2.0,,Flat,4000
68200.0,"Sector 78, Noida, Sector 78, Noida, Delhi NCR",1390,28.56118695507,77.3865691983336,3,3,3.0,,Flat,4460
29700.0,"B-6, 2006., Amrapali Dream Valley, Greater Noida, Delhi NCR",805,28.5968074798584,77.44292449951172,2,2,2.0,,Flat,3354
88000.0,"Yamuna Expressway, Greater Noida, Delhi NCR",1705,28.3452278,77.5161987,3,2,,,Flat,4692
35420.0,"Greater Noida West, Noida, Delhi NCR",920,28.60595893859864,77.44451141357422,2,2,,,Flat,3500
42900.0,"Raj Nagar Extension, Ghaziabad, Raj Nagar Extension, Ghaziabad, Delhi NCR",1125,28.703725,77.415456,2,2,3.0,,Flat,3466
49500.0,"Noida-Greater Noida Link Rd, Sector-16B, Bhangel, Greater Noida, Uttar Pradesh, Sector 16, Greater Noida, Delhi NCR",1105,28.6113,77.4454,2,2,3.0,2.0,Flat,4072
52800.0,"Yamuna Expressway, Greater Noida, Delhi NCR",1267,28.4334641747244,77.5060123922586,3,2,,,Flat,3788
35200.0,"Sector 90, Gurgaon, Delhi NCR",690,28.405868,76.929915,2,2,,,Flat,4637
29700.0,"Noida Extension, Greater Noida, Delhi NCR",890,28.604884,77.425914,2,2,,,Flat,3033
275000.0,"sectorc15a noida, Sector 15A, Noida, Delhi NCR",2250,28.576414108276367,77.30426025390625,3,4,3.0,,Flat,11111
46200.0,"Yamuna Expressway, Greater Noida, Delhi NCR",1270,28.309616,77.55859,2,2,,,Flat,3307
28930.0,"Raj Nagar Extension, Ghaziabad, Delhi NCR",792,28.699069,77.4308221137806,2,2,2.0,,Flat,3320
109560.0,"Nirvana Country Sector 50 Gurugram, Nirvana Country, Gurgaon, Delhi NCR",1610,28.414627,77.060127,2,2,2.0,4.0,Flat,6186
49500.0,"Ahinsa Khand 2 Indirapuram Ghaziabad Uttar Pradesh, Ahinsa Khand 2, Ghaziabad, Delhi NCR",1000,28.63407325744629,77.43172454833984,2,2,1.0,1.0,Flat,4500
66000.0,"Govindpuram, Ghaziabad, Delhi NCR",1575,28.6896453,77.4933302,3,2,2.0,1.0,Flat,3809
132000.0,"Sector 45Noida Amrapali sapphire, Sector 45, Noida, Delhi NCR",1640,28.548787,77.346032,3,3,3.0,1.0,Flat,7317
214500.0,"Vasant Kunj, New Delhi, Sector B Vasant Kunj, New Delhi - South, Delhi NCR",1600,28.547435760498047,77.24966430664062,3,2,1.0,1.0,Flat,12187
79200.0,"501/2, Indirapuram, Ghaziabad, Delhi NCR",1260,28.6390512074392,77.3794732915532,3,2,,502.0,Flat,5714
82500.0,"Sector 21, Gurgaon, Delhi NCR",1140,28.513566,77.0733305,2,2,,,Flat,6578
93500.0,"3282, ATS Dolce, Zeta-1, Greater Noida, Zeta 1, Greater Noida, Delhi NCR",1800,28.496754,77.5222949538374,3,3,4.0,2.0,Flat,4722
47300.0,"Shalimar Garden Extension 1, Ghaziabad, Delhi NCR",1150,28.6900486,77.3405361,2,2,1.0,,Flat,3739
148500.0,"DLF City Phase 3, Gurgaon, Delhi NCR",1800,28.494107,77.1033555,5,4,3.0,,Flat,7500
148500.0,"sadar bazaar delhi cant. 110010, Delhi Cantonment, New Delhi - South, Delhi NCR",1450,28.63479423522949,77.04908752441406,4,2,,2.0,Individual House,9310
66000.0,"Abhay Khand, Ghaziabad, Delhi NCR",1170,28.6370524,77.344619,2,3,,,Flat,5128
28490.0,"Flora enclave., Gangapuram, Ghaziabad, Delhi NCR",880,28.677553176879883,77.48741149902344,2,2,1.0,,Flat,2943
104500.0,"Sector 45, Noida, Sector 45, Noida, Delhi NCR",1644,28.5465358119836,77.3526684550316,3,3,3.0,1.0,Flat,5778
165000.0,"177., Arjun Nagar, New Delhi - South, Delhi NCR",1350,28.5604951,77.1986314,3,3,1.0,,Flat,11111
44000.0,"64 Daulat Pura, Rahul Vihar Near bhatiya more, Ghaziabad, Daulatpura, Ghaziabad, Delhi NCR",700,28.65050506591797,77.43795776367188,2,2,1.0,,Individual House,5714
66110.0,"Uttam Nagar, New Delhi - West, Delhi NCR",1125,28.621288299560547,77.05307006835938,2,2,,,Flat,5342
55000.0,"Gaur city 2, Noida Extension, Noida, Delhi NCR",1225,28.6199486805594,77.4227671285202,2,2,4.0,,Flat,4081
76450.0,"Uttam Nagar West, New Delhi - West, Delhi NCR",1080,28.621767044067383,77.05584716796875,4,2,,,Individual House,6435
49500.0,"Dwarka Mor, New Delhi - West, Delhi NCR",800,28.61931610107422,77.03326416015625,3,2,2.0,2.0,Flat,5625
159500.0,"SECTOR - 109, GURUGRAM, HARYANA, Sector 109, Gurgaon, Delhi NCR",2630,28.51083403,77.003159,4,4,2.0,,Flat,5513
59400.0,"14th Avenue, Noida, Delhi NCR",1300,28.532350540161133,77.40760040283203,3,2,3.0,,Flat,4153
148500.0,"P-11 Block Sector-48, Sector 48, Gurgaon, Delhi NCR",2268,28.4104869253496,77.0384324627314,4,4,3.0,,Flat,5952
71500.0,"Sohna Road, Gurgaon, Delhi NCR",1257,28.416558,77.022441,2,2,4.0,,Flat,5171
78100.0,"G T Road, Ghaziabad, Delhi NCR",1690,28.679009,77.3492951427093,3,3,,,Individual House,4201
88000.0,"Kaushambi, Ghaziabad, Delhi NCR",1740,28.645141,77.323027,3,3,,,Flat,4597
121000.0,"Sector 21 Surya Vihar-, Gurgaon, Delhi NCR",1640,28.517671585083008,77.07597351074219,3,3,,,Individual House,6707
50600.0,"Krishna Colony, Gurgaon, Delhi NCR",750,28.466155,77.010758,2,2,1.0,1.0,Flat,6133
143000.0,"A-64 First Floor, Ramesh Nagar, New Delhi - West, Delhi NCR",1125,28.653175354003903,77.13507080078125,4,2,3.0,,Flat,11555
69300.0,"Sector 78, Noida, Delhi NCR",1390,28.56118695507,77.3865691983336,3,3,3.0,,Flat,4532
121000.0,"Indirapuram, Ghaziabad, Delhi NCR",2370,28.6350948892475,77.3635358006406,4,3,,1.0,Flat,4641
57090.0,"Sec 168, Sector 168, Noida, Delhi NCR",1085,28.49728592,77.40909126,2,2,3.0,,Flat,4783
49500.0,"Arihant ambience crossing republic ghaziabad, NH 24, Ghaziabad, Delhi NCR",1260,28.6260159438512,77.4358818168388,2,2,2.0,,Flat,3571
33110.0,"Surajpur, Greater Noida, Delhi NCR",990,28.5151375,77.495836,2,2,1.0,1.0,Flat,3040
27500.0,"Sector 76, Faridabad, Delhi NCR",1000,28.369786,77.358284,2,2,3.0,1.0,Flat,2500
104500.0,"Sector 90, Gurgaon., Sector 90, Gurgaon, Delhi NCR",1970,28.406891,76.930126,3,3,3.0,1.0,Flat,4822
60500.0,"Flat no. 002, 1st floor, chandra Park, Dwarka near Vegas Mall, Dwarka Mor, New Delhi - West, Delhi NCR",1100,28.619316,77.033262,4,2,1.0,,Individual House,5000
209000.0,"Sector 57, Gurgaon, Delhi NCR",2244,28.417357,77.076141,3,4,,,Individual House,8467
36079.989,"Omicron 3, Greater Noida, Delhi NCR",1005,28.474501,77.553187,2,2,,,Individual House,3263
38940.0,"Govindpuram, Ghaziabad, Delhi NCR",1025,28.687809,77.478751,2,2,,,Flat,3453
82059.989,"Sector 70, Noida, Delhi NCR",1446,28.594127,77.381972327979,3,2,,,Flat,5159
430100.0,"x123, Sushant Lok 1, Gurgaon, Delhi NCR",3700,28.454191,77.0837996,5,6,2.0,2.0,Flat,10567
44000.0,"flat no. 102, plot no. 102, Gyan Khand 1, Ghaziabad, Delhi NCR",900,28.64177894592285,77.35029602050781,2,2,2.0,,Flat,4444
36300.0,"604., Raj Nagar Extension, Ghaziabad, Delhi NCR",1054,28.7032437993963,77.4230703078806,2,2,2.0,,Individual House,3130
60500.0,"Ptrakar Vihar, Nyay Khand-|, Indirapuram, Ghaziabad. Pin-201014., Indirapuram, Ghaziabad, Delhi NCR",950,28.634123,77.353146,2,2,1.0,,Flat,5789
70400.0,"LBS Rd, behind Dena Bank, Kashi Nagar, Valmik Nagar, Bhandup West, Mumbai, Maharashtra, Neeti Khand 2, Ghaziabad, Delhi NCR",1450,28.64305305480957,77.34683227539062,3,3,1.0,,Individual House,4413
81950.0,"Sector 89, Faridabad, Sector 89, Faridabad, Delhi NCR",1670,28.4237892,77.3705248,3,3,3.0,2.0,Flat,4461
42900.0,"Aditya World City, NH-24, Mehrauli, NH 24, Ghaziabad, Delhi NCR",1125,28.658647,77.4757,3,2,2.0,1.0,Flat,3466
56100.0,"Noida Extension, Greater Noida, Delhi NCR",1327,28.604884,77.425914,2,2,,,Flat,3843
39600.0,"Gaur City 5th Avenue, Noida Extension, Noida, Noida Extension, Noida, Delhi NCR",910,28.614181,77.427713,2,2,3.0,1.0,Flat,3956
61820.0,"Zeta 1, Greater Noida, Delhi NCR",1500,28.496754,77.5222949538374,3,2,,1.0,Flat,3746
38500.0,"Sector 5 Rajendra Nagar, Ghaziabad, Delhi NCR",850,28.6809994,77.356998,2,2,,,Individual House,4117
77000.0,"11th avenue gaur city 2 greater noida, C-16, Greater Noida, Delhi NCR",1888,28.45358085632324,77.55622100830078,4,3,4.0,,Flat,3707
110000.0,"Vikaspuri, New Delhi - West, Delhi NCR",1000,28.6403661028191,77.0668951150617,3,2,1.0,,Flat,10000
66000.0,"T08 1214., Sector 168, Noida, Delhi NCR",1465,28.4962932685044,77.4085199482841,3,3,2.0,,Flat,4095
79750.0,"Sector 37C, Gurgaon, Delhi NCR",1565,28.449908,76.9876925,3,3,,,Flat,4632
140800.0,"Sector 65, Gurgaon, Delhi NCR",1433,28.408448,77.068574,2,2,,,Flat,8932
82500.0,"902, tower 1, Gurgaon - Faridabad Road, Gurgaon, Delhi NCR",1300,28.436305,77.13605,3,2,2.0,,Flat,5769
60500.0,"Shakti khand 4 indirapuram ghaziabad, Indirapuram, Ghaziabad, Delhi NCR",1350,28.64232063293457,77.42423248291016,3,2,1.0,,Flat,4074
57200.0,"Raj Nagar Extension, Ghaziabad, Delhi NCR",1220,28.70217,77.430308,2,2,3.0,,Flat,4262
115500.0,"Indraprastha apartments -1 Indraprastha colony sector 30-33 Faridabad, Sector 30, Faridabad, Delhi NCR",1762,28.4533650872734,77.3187795801133,3,3,,1.0,Flat,5959
60500.0,"Indirapuram, Ghaziabad, Delhi NCR",1000,28.644894,77.35968,3,2,1.0,,Flat,5500
88000.0,"110, Ahinsa Khand 2, Ghaziabad, Delhi NCR",1800,28.646093,77.384003,3,2,2.0,1.0,Flat,4444
49500.0,"H706 Ajnara sector 16B greater noida west (Near Urjatech chowk), Greater Noida West, Greater Noida, Delhi NCR",1245,28.606945,77.455578568448,3,2,4.0,,Flat,3614
39600.0,"Siddhartha Vihar, Ghaziabad, Delhi NCR",770,28.646286,77.406051,2,2,,,Individual House,4675
56100.0,"Sector 88, Faridabad, Delhi NCR",1273,28.4166908888947,77.354919473033,2,2,,,Flat,4006
71500.0,"Raj Nagar Extension, Ghaziabad, Delhi NCR",1540,28.7040534,77.4373305,3,3,,,Individual House,4220
39600.0,"NH 24, Ghaziabad, Delhi NCR",1125,28.654612,77.486901,3,2,,,Flat,3200
55000.0,"Sector 85, Faridabad, Delhi NCR",1536,28.4110110152882,77.354614568442,3,2,3.0,,Flat,3255
27500.0,"Raj Nagar Extension, Ghaziabad, Delhi NCR",800,28.7040534,77.4373305,2,2,,,Flat,3125
49500.0,"Mahagunpuram, Ghaziabad, Delhi NCR",1300,28.666056,77.479854,3,2,,,Flat,3461
57200.0,"Lal Kuan, Ghaziabad, Delhi NCR",1377,28.6501057107632,77.4870273018838,3,2,,1.0,Flat,3776
38500.0,"Crossings Republik, Ghaziabad, Delhi NCR",1250,28.635074,77.4316635963575,2,2,2.0,,Flat,2800
93500.0,"Nand Nagri, New Delhi - East, Delhi NCR",1500,28.69455909729004,77.30852508544922,4,4,2.0,,Flat,5666
34100.0,"Indraprastha Yojna, Bhopura, Ghaziabad, Bhopura, Ghaziabad, Delhi NCR",1050,28.7264530405965,77.3373385265705,2,2,3.0,1.0,Flat,2952
40700.0,"Sector 28 Dwarka, New Delhi - Dwarka, Delhi NCR",850,28.5449014,77.0355014,2,2,,,Flat,4352
176000.0,"Sector 85, Gurugram, Haryana, Sector 85, Gurgaon, Delhi NCR",2150,28.409389,76.951659,3,3,2.0,2.0,Flat,7441
148500.0,"Sector 23A, Gurgaon, Delhi NCR",1915,28.5063896,77.0475355,4,3,,,Flat,7049
49500.0,"Pratap Vihar, Ghaziabad, Delhi NCR",1000,28.6499845,77.4065455,3,2,,,Individual House,4500
77000.0,"Ahinsa Khand 2, Ghaziabad, Delhi NCR",1595,28.6428477,77.3826371,3,2,,1.0,Flat,4388
31900.0,"Sector 55, Noida, Delhi NCR",600,28.6041506,77.3481054,2,2,,,Flat,4833
74800.0,"Sahibabad, Ghaziabad, Delhi NCR",1690,28.6644882,77.3474938,3,3,,,Flat,4023
35750.0,"A/91, Raju Park, Devli Road, Khanpur, Devli, New Delhi - South, Delhi NCR",700,28.49579429626465,77.2367172241211,2,2,1.0,10.0,Flat,4642
64899.99999999999,"2002 iris., Sector 137, Noida, Delhi NCR",1045,28.5092080113141,77.4066255380327,2,2,4.0,1.0,Flat,5645
64349.99999999999,"Paras Tierea, Sector 137, Noida, Delhi NCR",1660,28.505584,77.410762,3,3,3.0,,Flat,3524
88000.0,"Geeta Colony, New Delhi - East, Delhi NCR",900,28.6510595,77.2706136,2,4,,,Flat,8888
29700.0,"Hapur Road, Ghaziabad, Delhi NCR",904,28.6748094,77.4596782,2,2,,1.0,Flat,2986
79200.0,"Sector 120, Noida, Delhi NCR",1550,28.5859361,77.3962895,3,3,,,Flat,4645
77000.0,"Noida Extension, Greater Noida, Delhi NCR",1545,28.605958,77.444512,3,3,3.0,2.0,Flat,4530
60500.0,"Sector 106, Gurgaon, Delhi NCR",1000,28.4998859,77.000302,2,2,2.0,1.0,Flat,5500
121000.0,"Sector 13 Dwarka, New Delhi - Dwarka, Delhi NCR",1350,28.5948315969717,77.0321123731924,2,2,1.0,2.0,Flat,8148
44000.0,"habitech panchatatva, Noida Extension, Noida, Delhi NCR",1195,28.592372,77.453675,2,2,3.0,1.0,Individual House,3347
71500.0,"Mianwali Colony, Gurgaon, Delhi NCR",1080,28.466991424560547,77.02930450439453,3,3,2.0,,Flat,6018
137500.0,"Apartment no.303, Vaishali, Ghaziabad, Delhi NCR",1855,28.6494838,77.340322,3,3,4.0,,Flat,6738
99000.0,"NHPC Employess Hillgrow CGHS GH- 5 Part -3 Sec 21 C Faridabad Pin code- 121002, Sector 21, Faridabad, Delhi NCR",1680,28.430542908375,77.2906269115728,3,2,4.0,2.0,Flat,5357
59950.0,"Sector 76, Noida, Delhi NCR",1070,28.569883,77.382497,2,2,,,Flat,5093
38500.0,"Zeta 1, Greater Noida, Delhi NCR",1050,28.5028971,77.526218,2,2,,,Flat,3333
39600.0,"rattan vihar rajendra park, Rajendra Park, Gurgaon, Delhi NCR",1000,28.4938375,77.0071875,3,2,1.0,,Flat,3600
34760.0,"Taj Expressway, Noida, Delhi NCR",890,28.4324446,77.5079173,2,2,,,Flat,3550
71500.0,"B 78., Ashoka Enclave Part 2, Faridabad, Delhi NCR",1250,28.480195999145508,77.3113021850586,3,2,3.0,2.0,Flat,5200
56430.0,"Plot No 299, Flat No G 4, Vaishali, Ghaziabad, Delhi NCR",1000,28.6876653,77.3307305,2,2,,1.0,Flat,5130
51480.0,"Tower D 1801 futec gateway sector 75 noida, Sector 75, Noida, Delhi NCR",1265,28.60016441345215,77.44549560546875,2,2,1.0,1.0,Flat,3699
68200.0,"Gandhi Nagar, Ghaziabad, Delhi NCR",1100,28.6547416,77.437137,3,2,,,Flat,5636
539000.0,"DLF City Phase 2, Gurgaon, Delhi NCR",4500,28.48860740661621,77.0819091796875,3,4,,,Flat,10888
66000.0,"Sector 23 Rohini, New Delhi - Rohini, Delhi NCR",700,28.72089385986328,77.08010864257812,3,3,1.0,,Flat,8571
109780.0,"Sector 79, Gurgaon, Delhi NCR",1490,28.37423557,76.95241631,3,3,3.0,,Flat,6697
35200.0,"F 1219., NH 24, Ghaziabad, Delhi NCR",840,28.683082,77.50921,2,2,2.0,1.0,Flat,3809
110000.0,"C-1/470, 2nd floor., Palam Vihar Pocket C, Gurgaon, Delhi NCR",1880,28.505053,77.029367,3,3,2.0,,Flat,5319
66000.0,"plot no 149 pocket 9 sec 21 rohini main road, Sector 21 Rohini, New Delhi - Rohini, Delhi NCR",699,28.714126586914062,77.06764221191406,2,2,2.0,,Flat,8583
55000.0,"Uttam Nagar, New Delhi - West, Delhi NCR",1044,28.6212874,77.0530735,3,2,3.0,,Flat,4789
30800.0,"Shree Radhey Appartment 602/B1 Ward no 3, Mehrauli, New Delhi - South, Delhi NCR",850,28.5201861,77.179158,2,2,,1.0,Flat,3294
36300.0,"Sector 2, Greater Noida, Delhi NCR",950,28.579593,77.445197,2,2,3.0,1.0,Flat,3473
71500.0,"Sector 92, Gurgaon., Sector 92, Gurgaon, Delhi NCR",1498,28.417213,76.921636,2,2,2.0,1.0,Flat,4339
71500.0,"Sector 10A, Gurgaon, Delhi NCR",1250,28.4446244,77.009305,2,2,,,Individual House,5200
44000.0,"Greater Noida West, Greater Noida, Delhi NCR",1290,28.5145122108668,77.5220350924981,3,2,,,Flat,3100
46200.0,"T-1, 902., Raj Nagar Extension, Ghaziabad, Delhi NCR",1290,28.705425,77.433193,2,2,4.0,,Flat,3255
77000.0,"Ahinsa Khand 2, Indirapuram, Ghaziabad, Uttar Pradesh, Ahinsa Khand 2, Ghaziabad, Delhi NCR",1665,28.6404556222776,77.380211,3,2,3.0,,Flat,4204
44000.0,"905 summit tower, Sector 86, Faridabad, Delhi NCR",1200,28.404368478163,77.3360770274415,2,2,3.0,,Flat,3333
52800.0,"RZ D/59, Street No.5, Mahavir Enclave Part 1, New Delhi - Dwarka, Delhi NCR",800,28.5980365,77.0765245,2,2,1.0,,Flat,6000
57750.0,"Sector 76, Noida, Sector 76, Noida, Delhi NCR",1015,28.5654147528131,77.383196,2,2,2.0,,Flat,5172
89870.0,"Sector 79, Noida, Delhi NCR",1645,28.563031,77.394037,3,3,,,Flat,4966
69300.0,"Mahagun Mascot, Crossings Republik., Crossings Republik, Ghaziabad, Delhi NCR",1890,28.629808,77.440609,3,3,4.0,,Flat,3333
93500.0,"Sector 119, Noida, Delhi NCR",1625,28.5863287948209,77.4010620206905,3,2,,,Flat,5230
31900.0,"WZ7, Dayalsar road, Uttam Nagar, New Delhi, Uttam Nagar, New Delhi - West, Delhi NCR",830,28.619779,77.056695,3,2,2.0,1.0,Flat,3493
66000.0,"Niti Khand-Indirapuram, Ghaziabad, Delhi NCR",1200,28.6452824,77.3621025,3,2,3.0,,Flat,5000
99000.0,"4f., Sector 21D, Faridabad, Delhi NCR",1650,28.4236175160781,77.2922197946484,3,2,3.0,4.0,Flat,5454
137500.0,"heart song, Sector 108, Gurgaon, Delhi NCR",2003,28.510596,76.988572,3,3,3.0,,Flat,6240
59400.0,"UA 2 3rd Floor Usha Park Jail Road New Delhi 64, Hari Nagar, New Delhi - West, Delhi NCR",900,28.624575,77.10898,3,2,2.0,,Flat,6000
82500.0,"Sector 37C, Sector 37C, Gurgaon, Delhi NCR",1402,28.45149078,76.98910785,2,2,3.0,,Flat,5349
154000.0,"Sector 46, Faridabad, Delhi NCR",3000,28.43975067138672,77.29987335205078,3,3,2.0,,Flat,4666
48400.0,"Sector 168, Noida, Delhi NCR",1200,28.493556,77.409658,2,2,,,Flat,3666
99000.0,"A Block, Sector 45, Gurgaon, Delhi NCR",1600,28.44363413,77.05975,2,2,,,Flat,5625
88000.0,"sector 84, Sector 84, Gurgaon, Delhi NCR",1900,28.403432,76.965023,3,3,2.0,,Flat,4210
81400.0,"Sector 143, Noida, Delhi NCR",1340,28.502597,77.428742,3,2,,,Flat,5522
104500.0,"Sector 86, Gurgaon, Delhi NCR",1930,28.3984598,76.9410753,3,3,3.0,1.0,Flat,4922
55000.0,"House No.349, Yusufpur Chak Shaberi, Greater Noida West, Noida Extension, Noida, Delhi NCR",890,28.6189135130359,77.4116989055986,5,2,1.0,2.0,Flat,5617
121000.0,"Sector 10 dwarka., Sector 10 Dwarka, New Delhi - Dwarka, Delhi NCR",1100,28.588867,77.060315,2,2,2.0,2.0,Individual House,10000
85800.0,"Vasundhara Ghaziabad, Sector 5 Vasundhara, Ghaziabad, Delhi NCR",1500,28.6363468170166,77.43357849121094,3,2,1.0,2.0,Flat,5200
49500.0,"Crossings Republik, Ghaziabad, Delhi NCR",1254,28.6297895,77.4338883,2,2,4.0,,Individual House,3588
33000.0,"Nehru Nagar, Ghaziabad, Delhi NCR",700,28.6588755,77.4432295,2,2,1.0,1.0,Individual House,4285
95700.0,"E 65 ff amar colony., Amar Colony, New Delhi - South, Delhi NCR",900,28.56134986877441,77.24330139160156,2,2,2.0,1.0,Flat,9666
88000.0,"Chopal nayak mohalla VPO Bijwasan New Delhi 110061, Bijwasan, New Delhi - South, Delhi NCR",1260,28.52904510498047,77.05294799804688,5,2,,,Flat,6349
110000.0,"APH 3 SCOTTISH GARDEN INDIRAPURAM, Ahinsa Khand 2, Ghaziabad, Delhi NCR",2150,28.64389991760254,77.38421630859375,4,4,2.0,2.0,Flat,4651
40700.0,"Sector 13 Vasundhara, Ghaziabad, Delhi NCR",850,28.6543295,77.3646575,2,2,,,Flat,4352
110000.0,"South City 1, Gurgaon, Delhi NCR",1600,28.4570251,77.0646805,2,2,,,Flat,6250
137500.0,"Nirvana Country, Gurgaon, Delhi NCR",1877,28.414627,77.060127,3,3,3.0,1.0,Flat,6659
85800.0,"tulip orange, Sector 70, Gurgaon, Delhi NCR",1137,28.395680754374,77.0297919921106,3,2,2.0,1.0,Flat,6860
132000.0,"Sector 13 Rohini, New Delhi - Rohini, Delhi NCR",900,28.7167454746086,77.1321933885955,2,2,,,Flat,13333
44000.0,"Sector 70, Faridabad, Delhi NCR",1045,28.3378598374231,77.3519246076565,2,2,3.0,,Flat,3827
63249.99999999999,"Omicron, Greater Noida, Omicron, Greater Noida, Delhi NCR",1737,28.4751606,77.55141449,3,3,,2.0,Flat,3310
44000.0,"Saini, Greater Noida, Delhi NCR",1095,28.56885309,77.49129944,2,2,3.0,,Individual House,3652
38500.0,"Ashoka Enclave, Ashoka Enclave Part 1, Faridabad, Delhi NCR",850,28.468477249145508,77.31389617919922,2,2,2.0,,Flat,4117
44000.0,"Sector 70, Faridabad, Sector 70, Faridabad, Delhi NCR",1045,28.3378598374231,77.3519246076565,2,2,3.0,,Flat,3827
137500.0,"Sector 65, Gurgaon, Delhi NCR",1380,28.403028,77.075396,3,3,2.0,1.0,Flat,9057
38500.0,"Sector 70, Faridabad, Delhi NCR",1045,28.3378598374231,77.3519246076565,2,2,,,Individual House,3349
38500.0,"Sector 88, Faridabad, Sector 88, Faridabad, Delhi NCR",1304,28.4108624147608,77.352514553566,2,2,4.0,1.0,Flat,2684
52910.0,"Sector 46, Noida, Delhi NCR",1150,28.5507543331581,77.3616874515359,2,2,,,Individual House,4182
66000.0,"Sector 50 Block F, Noida, Delhi NCR",900,28.5715015,77.3734019,2,2,,,Flat,6666
28710.0,"Sector 88, Faridabad, Delhi NCR",816,28.421263562,77.35181374603201,3,2,2.0,,Flat,3198
86900.0,"Sector 75, Noida, Delhi NCR",1450,28.57743,77.3794147929227,3,2,5.0,,Flat,5448
63799.99999999999,"Sector 137, Noida, Sector 137, Noida, Delhi NCR",1195,28.509118,77.413416,2,2,2.0,,Flat,4853
27500.0,"Gayatri tower, NH 24, Ghaziabad, Delhi NCR",840,28.666747,77.479096,2,2,4.0,,Flat,2976
