address,suburb,price,bedrooms,bathrooms,car_garage,sqft_lot,sqft_living,year_built,date_sold,zipcode,latitude,longitude
1 Acorn Place,South Lake,565000,4,2,2.0,600,160,2003.0,09/2018,6164,-32.1159,115.84245
1 Addis Way,Wandi,365000,3,2,2.0,351,139,2013.0,02/2019,6167,-32.19347028,115.8595535
1 Ainsley Court,Camillo,287000,3,1,1.0,719,86,1979.0,06/2015,6111,-32.12057813,115.993579
1 Albert Street,Bellevue,255000,2,1,2.0,651,59,1953.0,07/2018,6056,-31.90054675,116.0380088
1 Aman Place,Lockridge,325000,4,1,2.0,466,131,1998.0,11/2016,6054,-31.88579,115.94778
1 Amethyst Crescent,Mount Richon,409000,4,2,1.0,759,118,1991.0,03/2013,6112,-32.1538014,116.0236578
1 Ardara Lane,Hilbert,400000,3,2,2.0,386,132,2014.0,05/2016,6112,-32.17997786,115.9886473
1 Arnside Bend,Waikiki,370000,4,2,2.0,468,158,2013.0,03/2019,6169,-32.31766224,115.7619682
1 Arrochar Court,Hamersley,565000,4,2,3.0,875,168,1983.0,06/2020,6022,-31.84775987,115.8227005
1 Arundel Street,Bayswater,685000,3,2,8.0,552,126,1999.0,10/2019,6053,-31.91788,115.90705
1 Ash Road,Carmel,675000,4,2,6.0,2538,241,1977.0,07/2014,6076,-32.01574,116.08891
1 Ashcott Gate,Butler,367500,3,2,2.0,398,158,2003.0,11/2018,6036,-31.65428,115.7022
1 Ashcroft Way,Balga,300000,3,2,2.0,243,94,2008.0,12/2019,6061,-31.84964681,115.846314
1 Ashendon Boulevard,Hammond Park,535000,4,2,4.0,704,247,2002.0,07/2019,6164,-32.15959,115.84948
1 Ashtree Boulevard,Wattle Grove,540000,4,2,2.0,614,186,2004.0,05/2018,6107,-32.00294817,115.9836459
1 August Court,Bull Creek,685000,3,2,3.0,706,196,1985.0,11/2017,6149,-32.06458,115.86046
1 Avonlea Place,Bullsbrook,350000,4,2,2.0,663,154,1994.0,11/2017,6084,-31.66068818,116.0407159
1 Babbler Court,Maida Vale,570000,4,2,2.0,568,225,2003.0,10/2020,6057,-31.95242,116.0207
1 Balga Place,Koongamia,318000,2,1,3.0,751,90,1959.0,05/2013,6056,-31.90409,116.04213
1 Bamlett Street,Mount Nasura,379000,3,2,3.0,785,167,1977.0,08/2017,6112,-32.13247,116.0242
1 Banken Court,Forrestdale,387500,4,1,1.0,782,111,1981.0,04/2017,6112,-32.14885,115.94308
1 Barcroft Court,Atwell,465000,4,2,2.0,450,173,2000.0,08/2017,6164,-32.13768,115.86697
1 Bates Loop,Lockridge,325000,3,1,1.0,421,93,1972.0,08/2014,6054,-31.88355668,115.9542319
1 Batoni Way,Ashby,515000,3,2,2.0,388,160,2007.0,09/2014,6065,-31.7328966,115.7996371
1 Bayley Street,Woodbridge,610000,3,1,1.0,550,121,1920.0,04/2013,6056,-31.88948,115.99427
1 Beach Street,Bicton,1950000,5,2,2.0,855,305,1981.0,10/2018,6157,-32.02366,115.78189
1 Beacon Way,Singleton,420000,4,2,2.0,600,295,2006.0,01/2015,6175,-32.434584,115.758448
1 Beenan Elbow,South Guildford,347500,3,1,3.0,452,88,,08/2018,6055,-31.90698,115.98698
1 Belfry Way,Wattle Grove,492000,4,2,2.0,459,250,2012.0,11/2017,6107,-32.00415385,115.9949594
1 Bell Court,Armadale,201000,3,1,2.0,711,99,1985.0,02/2019,6112,-32.164115,116.0083927
1 Bellata Place,Kenwick,275000,3,1,1.0,570,108,1996.0,04/2018,6107,-32.03406,115.99137
1 Bellier Place,Hamilton Hill,410000,4,2,1.0,808,155,1983.0,12/2019,6163,-32.08948,115.78811
1 Belmont Close,Port Kennedy,315000,4,2,2.0,550,127,1999.0,12/2020,6172,-32.36259,115.7517
1 Belvedere Rise,Roleystone,795000,4,3,6.0,2095,254,,10/2017,6111,-32.11535746,116.0748618
1 Benowa Drive,Glen Forrest,600000,4,2,4.0,2028,222,1988.0,08/2015,6071,-31.91039,116.10841
1 Bianco Place,Secret Harbour,400000,4,2,2.0,672,186,2002.0,09/2019,6173,-32.39686,115.75637
1 Bignell Place,Herne Hill,350000,3,1,2.0,797,177,1974.0,08/2013,6056,-31.82521,116.02121
1 Bindoon Close,Gwelup,835000,4,2,2.0,480,170,1998.0,06/2016,6018,-31.86994,115.79768
1 Binnia Mews,Harrisdale,482000,4,2,2.0,469,152,2008.0,11/2020,6112,-32.11598945,115.9173273
1 Binns Court,North Fremantle,1260000,3,3,2.0,354,227,2000.0,11/2016,6159,-32.02689,115.75382
1 Bishops Close,Quinns Rocks,405000,3,2,4.0,781,156,1989.0,03/2019,6030,-31.66895,115.70455
1 Bittern Close,Maida Vale,465000,3,2,2.0,620,143,2002.0,07/2019,6057,-31.95549,116.01601
1 Blato Place,Spearwood,560000,5,2,2.0,592,168,1996.0,12/2018,6163,-32.11658806,115.7790863
1 Bohemia Way,Parkwood,380000,3,1,2.0,979,122,1978.0,05/2016,6147,-32.0459,115.90519
1 Boncath Road,Butler,360000,3,2,2.0,397,130,2006.0,12/2020,6036,-31.638689,115.700206
1 Bonita Way,Tapping,540000,4,2,2.0,641,221,2005.0,03/2018,6065,-31.71607737,115.7997715
1 Boronia Court,Thornlie,420000,3,2,2.0,680,163,1991.0,06/2020,6108,-32.07705,115.94632
1 Borough Road,Baldivis,330000,4,2,2.0,495,171,2011.0,12/2020,6171,-32.36170962,115.8136691
1 Bourke Street,Kensington,705000,3,1,6.0,774,132,1952.0,10/2017,6151,-31.98792,115.88137
1 Bowood Cove,Kiara,615000,4,2,2.0,818,247,1994.0,03/2016,6054,-31.88124,115.93878
1 Bradbury Road,Hamilton Hill,565000,3,2,2.0,775,151,1960.0,05/2020,6163,-32.07693,115.78611
1 Bradford Street,Menora,850000,3,1,1.0,917,120,1959.0,10/2013,6050,-31.92056,115.86557
1 Bradstocks Grove,Southern River,780000,4,2,2.0,447,305,2015.0,09/2018,6110,-32.0993486,115.9525676
1 Bramley Way,Bibra Lake,520000,3,3,2.0,358,154,2001.0,03/2018,6163,-32.10379,115.82631
1 Brassey Street,Swanbourne,1100000,3,1,1.0,619,150,1945.0,12/2016,6010,-31.97685,115.76985
1 Brentwood Way,The Vines,590000,5,2,2.0,834,246,2004.0,03/2020,6069,-31.75123,116.00693
1 Brilliant Rise,Stratton,312000,4,2,3.0,561,101,1993.0,08/2018,6056,-31.86829,116.03838
1 Briston Place,North Beach,900000,3,2,3.0,372,213,2008.0,08/2016,6020,-31.86096794,115.7663678
1 Bristow Street,Haynes,177000,3,1,,412,150,2015.0,08/2013,6112,-32.15937438,115.9880817
1 Brittain Avenue,Madeley,580000,4,2,2.0,541,188,2004.0,07/2017,6065,-31.81185,115.8241
1 Brix Street,Wembley Downs,1310000,4,2,2.0,544,246,2010.0,07/2019,6019,-31.91782603,115.7766387
1 Brixton Road,Bentley,470000,3,2,2.0,295,110,1950.0,02/2018,6102,-32.00510024,115.9157517
1 Bruning Road,Manning,717000,3,2,2.0,578,176,1995.0,02/2018,6152,-32.00891,115.87138
1 Buckie Court,Warwick,650000,4,2,1.0,715,170,,08/2014,6024,-31.83908,115.79647
1 Bull Place,Queens Park,387000,4,1,4.0,380,114,1998.0,09/2018,6107,-32.00205721,115.941062
1 Bynder Lane,Medina,330000,3,2,2.0,233,111,2014.0,07/2015,6167,-32.23409592,115.8058854
1 Cabarita Road,Kalamunda,605000,2,1,,2578,180,1977.0,08/2020,6076,-31.98705,116.04769
1 Cadiz Way,Bullsbrook,380000,3,2,2.0,350,156,2016.0,06/2016,6084,-31.65843642,116.0411802
1 Caladenia Way,Koongamia,85000,2,1,2.0,828,117,1965.0,10/1998,6056,-31.90963,116.04061
1 Cam Court,Merriwa,345000,3,2,2.0,603,128,1992.0,06/2017,6030,-31.66719,115.71465
1 Camden Boulevard,Aubin Grove,528000,4,2,2.0,619,180,2008.0,03/2018,6164,-32.16854691,115.86785
1 Cameron Street,Karrinyup,1350000,4,1,5.0,802,266,2012.0,03/2018,6018,-31.87098262,115.7759589
1 Camira Place,Gooseberry Hill,735000,4,2,2.0,1940,223,1982.0,07/2015,6076,-31.95124,116.05696
1 Camrose Lane,Darch,442500,4,2,2.0,529,176,2005.0,11/2019,6065,-31.81372,115.85078
1 Canarias Way,Hillarys,1015000,3,2,2.0,500,312,2003.0,08/2018,6025,-31.81745,115.74223
1 Cannon Court,Alexander Heights,530000,3,2,4.0,771,200,1985.0,05/2016,6064,-31.83138,115.87381
1 Canny Road,St James,515000,3,1,2.0,688,90,1958.0,06/2019,6102,-31.99883,115.90544
1 Carnegie Road,Bassendean,1100000,4,2,4.0,1012,251,2005.0,11/2018,6054,-31.90763,115.9573
1 Carroll Street,Ardross,1265000,4,3,2.0,590,261,2005.0,02/2018,6153,-32.02499618,115.8306028
1 Cartland Court,Bedfordale,750000,4,3,2.0,4225,236,2003.0,08/2019,6112,-32.14722691,116.0560529
1 Caterpillar Road,Success,472500,4,2,4.0,446,147,2008.0,07/2018,6164,-32.15555254,115.8466171
1 Caxton Lane,Ballajura,392500,4,2,,532,185,,01/2019,6066,-31.84873764,115.9045034
1 Centaur Circle,Woodbridge,900000,4,2,2.0,454,263,,12/2008,6056,-31.8934,115.998
1 Cessford Close,Leda,380000,5,2,2.0,642,153,1994.0,04/2015,6170,-32.26303,115.80407
1 Challenger Avenue,Manning,590000,3,2,2.0,449,179,2001.0,04/2019,6152,-32.01232,115.87353
1 Chamberlain Circle,Bateman,835000,4,2,2.0,727,179,1985.0,11/2018,6150,-32.05318,115.85013
1 Charleston Road,Eglinton,495000,4,2,2.0,432,155,2015.0,02/2016,6034,-31.59475775,115.6689691
1 Chauvel Court,Kiara,390000,4,2,3.0,543,111,1994.0,06/2012,6054,-31.88496,115.94411
1 Chester Court,Orelia,280000,3,1,2.0,806,119,1970.0,03/2017,6167,-32.23786,115.82736
1 Chiddington Street,Beckenham,355000,3,1,2.0,953,140,1974.0,02/2017,6107,-32.02907099,115.9661741
1 Chipala Court,Edgewater,465000,4,2,4.0,697,160,1987.0,01/2016,6027,-31.77422523,115.7911066
1 Citrus Loop,South Lake,372000,3,2,2.0,402,135,,01/2020,6164,-32.10493,115.83043
1 Claret Ash Court,Helena Valley,685000,4,2,2.0,1012,180,1994.0,04/2015,6056,-31.91358,116.02843
1 Clarke Street,East Cannington,360000,3,2,2.0,218,130,2006.0,03/2016,6107,-32.01255367,115.9493774
1 Clearwater Way,Singleton,320000,4,2,2.0,550,185,2006.0,06/2020,6175,-32.43563932,115.7585468
1 Clifford Loop,Darch,492000,3,2,2.0,289,122,2008.0,04/2016,6065,-31.81702,115.84811
1 Cliverton Court,Marmion,974000,5,2,2.0,766,290,1990.0,02/2013,6020,-31.84584,115.75809
1 Clovertree Street,Maddington,435000,4,2,5.0,1062,177,1988.0,09/2017,6109,-32.0541,116.0043
1 Cobea Court,Mount Claremont,900000,3,2,2.0,367,160,1995.0,06/2017,6010,-31.9669,115.78778
1 Cockman Road,Greenwood,405000,3,1,3.0,698,110,1975.0,08/2018,6024,-31.8335,115.81362
1 Cohen Place,Beechboro,290000,3,1,1.0,782,111,1978.0,12/2018,6063,-31.87535346,115.9536986
1 Collier Street,Wembley,1160000,2,2,1.0,635,201,1950.0,12/2019,6014,-31.92994,115.81815
1 Colmworth Way,Butler,415000,3,2,2.0,555,159,2004.0,11/2019,6036,-31.64758777,115.710316
1 Colonial Mews,Edgewater,525000,4,2,1.0,758,125,1984.0,10/2017,6027,-31.76607,115.77891
1 Conical Way,Harrisdale,629000,4,2,3.0,578,229,2012.0,09/2017,6112,-32.11590661,115.9300609
1 Convallis Vista,The Vines,600000,4,2,2.0,510,217,2007.0,11/2020,6069,-31.76277307,116.0041591
1 Corbin Gate,Madeley,427000,3,2,2.0,618,134,2005.0,03/2020,6065,-31.808107,115.82654
1 Coronado Ridge,Iluka,1015000,5,3,2.0,911,309,1995.0,02/2017,6028,-31.74341,115.73399
1 Corvette Close,Waikiki,445000,4,2,2.0,747,210,1991.0,11/2019,6169,-32.32226,115.748
1 Craigie Place,Mundaring,610000,4,2,3.0,1869,167,1985.0,12/2018,6073,-31.90413,116.16174
1 Crest Grove,Ballajura,465000,4,2,2.0,803,173,1988.0,08/2019,6066,-31.83561,115.88917
1 Creswick Cross,Kiara,454000,4,2,2.0,545,160,1993.0,09/2009,6054,-31.88155,115.93723
1 Criollo Place,Stratton,380000,3,2,1.0,514,131,2000.0,10/2014,6056,-31.8666182,116.0474837
1 Crivelli Parkway,Ashby,382000,4,2,2.0,401,186,2005.0,06/2020,6065,-31.73266376,115.8005439
1 Crowley Vista,Salter Point,1150000,4,2,2.0,527,209,2001.0,01/2014,6152,-32.01888,115.86017
1 Curruthers Road,Mount Pleasant,2200000,2,1,2.0,1100,497,1958.0,12/2018,6153,-32.035946,115.853523
1 Cypress Mews,Warnbro,375000,4,2,4.0,580,140,2006.0,09/2018,6169,-32.3275827,115.7565963
1 Dagostino Road,Byford,495000,4,2,2.0,694,246,2010.0,11/2020,6122,-32.22239608,115.9921401
1 Dalkey Way,Darch,445000,3,2,2.0,327,171,2008.0,09/2016,6065,-31.81004895,115.84418
1 Danzil Street,Willagee,515000,4,2,1.0,450,150,2002.0,07/2019,6156,-32.05243282,115.7976803
1 Datchet Turn,Bertram,270000,3,2,2.0,271,109,2011.0,08/2020,6167,-32.23789039,115.8423672
1 David Street,Mullaloo,780000,5,2,2.0,810,180,1977.0,04/2018,6027,-31.7818,115.73812
1 Davis Court,Woodlands,1280000,4,3,4.0,701,264,1980.0,08/2017,6018,-31.90617,115.79711
1 Daybreak Loop,Wellard,410000,4,2,2.0,465,206,2015.0,03/2018,6170,-32.26332378,115.8554732
1 Dean Place,Lockridge,425000,4,2,1.0,666,143,1983.0,01/2014,6054,-31.87775,115.94532
1 Dean Road,Bateman,599900,3,1,,807,126,1968.0,11/2017,6150,-32.0464,115.84477
1 Delphi Court,Rossmoyne,1330000,3,2,2.0,1133,135,1974.0,02/2014,6148,-32.03477,115.87024
1 Denton Street,Wembley,732000,3,1,2.0,328,145,1990.0,03/2019,6014,-31.94173236,115.8166999
1 Dermer Road,Beaconsfield,530000,3,2,2.0,1319,133,,12/2017,6162,-32.07189,115.7687
1 Deverell Way,Bentley,465000,3,2,3.0,327,136,2012.0,01/2019,6102,-32.01167461,115.9076728
1 Dilkera Place,Quinns Rocks,380000,3,2,2.0,646,168,1995.0,01/2020,6030,-31.66609,115.70398
1 Dirk Hartog Road,Bull Creek,572000,3,1,2.0,483,115,,08/2017,6149,-32.05966708,115.8569943
1 Discovery Circuit,Iluka,1300000,5,3,4.0,770,350,2002.0,03/2018,6028,-31.74151,115.72522
1 Disney Street,Brentwood,710250,4,2,2.0,434,139,1990.0,05/2016,6153,-32.0424445,115.8455803
1 Dolomite Road,Carine,835000,5,2,2.0,755,197,1986.0,02/2018,6020,-31.85258,115.77079
1 Dolphin Way,Beldon,400000,3,1,,683,86,1978.0,12/2016,6027,-31.77175,115.7563
1 Doradeen Close,Hillman,275000,3,1,1.0,761,94,1988.0,07/2015,6168,-32.28643,115.76432
1 Doram Court,Swan View,335000,3,1,,686,133,1985.0,02/2017,6056,-31.87503,116.04677
1 Driftwood Way,Bennett Springs,400000,4,2,2.0,582,153,2001.0,01/2017,6063,-31.85716057,115.9486519
1 Driver Road,Darch,532000,4,2,2.0,653,191,2004.0,08/2016,6065,-31.81305,115.84892
1 Dunbar Road,Claremont,1700000,3,2,4.0,613,125,,12/2020,6010,-31.98391,115.78789
1 Durant Way,Brentwood,820000,3,2,2.0,419,162,2006.0,09/2015,6153,-32.04516488,115.8514316
1 Dutton Way,Singleton,385000,3,1,,913,112,1983.0,01/2016,6175,-32.45159,115.75533
1 Duxford Street,Butler,427000,4,2,4.0,673,153,2002.0,11/2018,6036,-31.64941,115.69968
1 East Street,Mount Hawthorn,660000,2,2,2.0,376,100,1962.0,07/2019,6016,-31.92477,115.83006
1 Eastfield Court,Ferndale,250000,3,1,1.0,955,396,2017.0,07/2016,6148,-32.03099,115.9353606
1 Easton Court,Boya,508000,4,2,2.0,1010,157,1993.0,05/2015,6056,-31.91901559,116.0521097
1 Edelweiss Way,Beckenham,415000,4,2,2.0,538,115,1994.0,09/2018,6107,-32.02013901,115.9617687
1 Edgecombe Pass,Aveley,550000,4,3,3.0,741,254,2008.0,05/2019,6069,-31.79128655,115.9853567
1 El Porto Way,Iluka,935000,4,2,2.0,623,280,2007.0,02/2020,6028,-31.73064,115.7305
1 Elfin Grove,Warnbro,380000,3,2,3.0,759,179,1994.0,03/2018,6169,-32.33945,115.76287
1 Elvire Street,Midland,349000,2,1,,927,106,1930.0,01/2018,6056,-31.88588,116.00078
1 Empress Crescent,Atwell,470000,4,2,2.0,701,168,1998.0,03/2019,6164,-32.12896,115.8641
1 Epping Court,High Wycombe,475000,4,2,2.0,500,197,2007.0,09/2020,6057,-31.933213,116.010305
1 Ericht Pass,Kinross,577500,4,2,2.0,674,161,,04/2019,6028,-31.71267,115.74442
1 Estevan Way,Ferndale,490000,4,2,5.0,700,79,1975.0,02/2018,6148,-32.03262,115.92794
1 Ethel Street,Guildford,715000,4,2,1.0,380,160,1900.0,02/2015,6055,-31.90087308,115.9671624
1 Etna Place,Rossmoyne,1100000,4,3,,520,240,2009.0,09/2014,6148,-32.03299881,115.8710379
1 Eudora Way,North Coogee,1130000,4,2,2.0,495,241,2009.0,10/2017,6163,-32.10580379,115.7663769
1 Facey Road,Gnangara,340000,4,1,,40864,180,1978.0,12/1998,6077,-31.76939,115.87276
1 Fairetha Court,Ascot,720000,4,3,2.0,528,189,1997.0,09/2014,6104,-31.92723,115.94662
1 Fairhaven Terrace,Hillarys,1075000,4,2,,451,282,2003.0,02/2019,6025,-31.8026285,115.7335301
1 Fallow Crescent,Spearwood,475000,4,2,2.0,427,142,1994.0,01/2019,6163,-32.11469111,115.7777208
1 Fantail Drive,Bibra Lake,545000,4,2,2.0,735,170,1984.0,02/2017,6163,-32.10444,115.828
1 Farrington Street,Warnbro,317500,4,2,2.0,872,153,1965.0,03/2018,6169,-32.33509,115.75024
1 Federal Street,Osborne Park,465000,3,2,2.0,337,117,2002.0,07/2020,6017,-31.89819732,115.8259776
1 Felpham Court,Success,449000,4,2,2.0,502,185,2004.0,08/2020,6164,-32.13581424,115.8464459
1 Ferguson Road,Karragullen,150000,4,2,,16392,160,1980.0,06/1995,6111,-32.09728005,116.1008255
1 Ficarra Way,Sinagra,450000,4,2,2.0,588,160,,05/2018,6065,-31.73905,115.80411
1 First Avenue,Woodbridge,525000,3,1,2.0,607,94,1969.0,11/2007,6056,-31.89071,115.99245
1 Fischer Road,Darlington,900000,4,3,3.0,2152,260,1982.0,08/2017,6070,-31.90745,116.08066
1 Flello Rise,Bedfordale,950000,4,3,3.0,3102,287,2009.0,12/2014,6112,-32.15915736,116.0580013
1 Flemington Way,Redcliffe,375000,3,2,,428,144,2000.0,09/2020,6104,-31.94468218,115.9462251
1 Flint Close,Pearsall,522000,4,2,2.0,641,222,2002.0,02/2019,6065,-31.7776903,115.815662
1 Florey Place,Huntingdale,464000,4,1,4.0,700,182,1986.0,07/2016,6110,-32.0806105,115.972457
1 Floribunda Gate,Dayton,550000,4,2,2.0,414,190,,01/2016,6055,-31.85877749,115.9732655
1 Forrest Court,Kiara,490000,4,2,2.0,720,166,1989.0,10/2008,6054,-31.88619,115.93636
1 Fort Street,Morley,560000,2,1,,605,185,2006.0,05/2020,6062,-31.90743,115.89934
1 Fortuna View,Iluka,1160000,4,2,3.0,696,329,2010.0,07/2019,6028,-31.73934726,115.7245862
1 Fortune Street,Balcatta,460000,3,2,2.0,322,109,1997.0,07/2018,6021,-31.88513,115.82445
1 Fourth Avenue,Rossmoyne,872000,4,2,2.0,1029,147,1989.0,01/2014,6148,-32.0356484,115.8700915
1 Fran Court,Merriwa,335000,3,2,2.0,653,168,2002.0,04/2017,6030,-31.67332,115.71274
1 Frederic Street,Koongamia,83000,2,1,2.0,935,100,1959.0,06/1998,6056,-31.90971373,116.0383163
1 Freedman Road,Menora,925000,4,2,4.0,792,237,1969.0,01/2018,6050,-31.9174949,115.8627879
1 Gaffin Way,Kwinana Town Centre,330000,3,2,2.0,203,108,2015.0,11/2015,6167,-32.24220021,115.8152219
1 Gali Lane,City Beach,1930000,4,3,2.0,440,307,2012.0,04/2016,6015,-31.92904792,115.770024
1 Galilee Way,Baldivis,547000,3,2,2.0,749,259,2009.0,07/2020,6171,-32.34096334,115.8181808
1 Gamay Court,The Vines,533000,4,2,,734,243,2001.0,09/2017,6069,-31.75328,116.00534
1 Gannett Street,Bateman,460000,2,1,1.0,807,76,1969.0,07/2019,6150,-32.04687661,115.8473517
1 Genesta Place,Two Rocks,405000,4,2,2.0,819,139,1986.0,01/2016,6037,-31.49278,115.58896
1 Georges Close,Kallaroo,1075000,4,2,3.0,773,330,1989.0,08/2016,6025,-31.79391,115.74608
1 Gerygone Pass,Tapping,465000,3,2,2.0,420,185,2007.0,08/2017,6065,-31.72047938,115.7877351
1 Ghost Gum Boulevard,Banksia Grove,335000,4,2,2.0,373,116,2004.0,08/2017,6031,-31.69797849,115.8022078
1 Gianatti Ramble,East Cannington,745000,4,2,2.0,462,337,2008.0,08/2016,6107,-32.0131973,115.9599173
1 Gidgee Cove,Kenwick,385000,3,2,2.0,416,141,2015.0,05/2018,6107,-32.03440647,115.9855347
1 Gilchrist Avenue,Bibra Lake,480000,3,1,2.0,700,102,1980.0,08/2016,6163,-32.08615,115.84273
1 Gillespie Court,Lockridge,330000,3,1,5.0,351,100,2000.0,09/2015,6054,-31.88684,115.94766
1 Gillon Road,Noranda,520000,4,2,,752,214,1990.0,11/2016,6062,-31.87758,115.90971
1 Giudice Way,Yangebup,885000,4,2,2.0,641,255,2009.0,11/2020,6164,-32.12598858,115.8084681
1 Glasson Way,Darch,610000,4,2,2.0,596,247,2007.0,08/2016,6065,-31.80600361,115.8399203
1 Glebe Close,Mindarie,830000,4,2,2.0,726,266,2001.0,01/2018,6030,-31.68433,115.71265
1 Glenelg Street,Mount Hawthorn,825000,4,2,2.0,325,144,,02/2018,6016,-31.92631,115.83128
1 Gloucester Road,Kalamunda,485000,4,2,1.0,997,179,1970.0,07/2018,6076,-31.9862,116.06309
1 Gloucester Street,Swanbourne,980000,4,2,3.0,500,180,,05/2017,6010,-31.97448929,115.7713637
1 Gold Lane,Iluka,769000,5,2,2.0,638,323,2005.0,06/2017,6028,-31.73051,115.73091
1 Goldsmith Drive,Wellard,900000,4,2,5.0,2929,346,1998.0,12/2018,6170,-32.26368,115.82987
1 Gordon Place,Huntingdale,410000,3,2,1.0,675,143,1985.0,05/2016,6110,-32.076494,115.9698639
1 Gorman Place,Calista,475000,4,2,2.0,559,201,2006.0,12/2015,6167,-32.247079,115.805396
1 Graduate Place,Marangaroo,385000,4,2,1.0,613,132,1993.0,07/2019,6064,-31.82507,115.84667
1 Grahame Street,Mount Helena,385000,4,1,2.0,1635,134,1975.0,05/2019,6082,-31.86844,116.21402
1 Grancey Avenue,Mundaring,650000,2,1,,3675,231,2005.0,02/2020,6073,-31.90044,116.15701
1 Grant Street,Duncraig,730000,5,2,2.0,576,183,2012.0,02/2020,6023,-31.82993213,115.7682169
1 Gray Road,Gooseberry Hill,560000,5,3,2.0,2646,270,1990.0,05/2016,6076,-31.95903077,116.0355405
1 Gray Road,Haynes,720000,4,2,2.0,2000,232,1993.0,01/2013,6112,-32.14771648,115.9833416
1 Green Street,Kewdale,505000,3,1,2.0,688,132,1986.0,05/2017,6105,-31.98095493,115.9380797
1 Greygum Rise,Kenwick,362500,5,2,1.0,515,153,1998.0,07/2019,6107,-32.03717,115.98572
1 Grid Court,Beldon,487000,3,1,2.0,685,124,1983.0,02/2017,6027,-31.7725,115.76202
1 Grimsay Road,Ardross,600000,3,1,3.0,380,95,1970.0,08/2016,6153,-32.02469,115.83702
1 Grove End Ridge,Mount Claremont,1675000,4,3,2.0,1055,299,2000.0,10/2017,6010,-31.96425,115.78209
1 Grove Street,Shoalwater,315000,3,1,1.0,825,109,1980.0,09/2017,6169,-32.29130126,115.7122419
1 Guy Place,Melville,990000,3,2,3.0,873,156,,09/2019,6156,-32.03713,115.80538
1 Hadlow Court,Leeming,428000,4,3,4.0,803,204,1980.0,11/2018,6149,-32.07296442,115.8655018
1 Halleendale Road,Walliston,620000,4,2,,1386,244,1995.0,10/2007,6076,-32.00122,116.06845
1 Hamlyn Glen,Kiara,405000,3,1,3.0,975,126,1993.0,07/2012,6054,-31.88204218,115.9341911
1 Hanrahan Loop,Kardinya,643000,4,2,2.0,701,188,1982.0,10/2018,6163,-32.06888,115.80488
1 Hansen Vista,Landsdale,538000,5,2,2.0,556,212,2006.0,07/2019,6065,-31.81228,115.86481
1 Hardey Road,Serpentine,375000,4,2,4.0,2000,127,1995.0,09/2014,6125,-32.36876,115.97618
1 Harrier Way,Beldon,395000,3,1,1.0,461,130,1985.0,11/2017,6027,-31.77517826,115.774014
1 Hartle Lane,Brookdale,311850,4,2,2.0,471,154,2014.0,10/2013,6112,-32.17006445,116.0063044
1 Hartley Street,Coolbellup,499000,4,2,2.0,613,230,1969.0,03/2017,6163,-32.07800737,115.7947337
1 Hartwell Parade,Jandakot,620000,4,2,2.0,815,228,2002.0,02/2019,6164,-32.10808521,115.8555693
1 Harwood Pass,Darling Downs,660000,5,3,2.0,4297,269,2004.0,07/2018,6122,-32.19289143,116.0120665
1 Harwood Street,Hilton,560003,3,2,2.0,537,175,1953.0,08/2016,6163,-32.06521332,115.7843712
1 Hazlett Close,South Lake,481000,4,2,1.0,703,123,1985.0,07/2016,6164,-32.10647,115.83728
1 Hebb Court,Parkerville,635000,3,1,6.0,20070,160,2001.0,06/2016,6081,-31.873898,116.1557516
1 Henderson Road,Stoneville,430000,3,1,2.0,2190,120,,04/2013,6081,-31.88207,116.17109
1 Hennessy Drive,Ashby,430000,4,2,2.0,570,187,2005.0,07/2020,6065,-31.73327888,115.797917
1 Henrietta Court,Coogee,727000,4,2,2.0,691,245,1998.0,09/2015,6166,-32.12453,115.77293
1 Henty Court,Mirrabooka,450000,4,1,1.0,723,187,1985.0,04/2015,6061,-31.85539218,115.8610425
1 Herbert Road,Subiaco,910000,2,1,1.0,241,120,,07/2018,6008,-31.95496368,115.8103043
1 Heslop Road,Lesmurdie,705000,5,2,3.0,1000,223,2000.0,04/2018,6076,-31.99545,116.05911
1 Hewlett Turn,Tapping,470000,4,2,2.0,594,250,2002.0,07/2018,6065,-31.71751458,115.7986454
1 Hillcrest Drive,Darlington,474000,3,2,3.0,2851,240,1974.0,01/2018,6070,-31.92197,116.08688
1 Hilliger Turn,Jane Brook,515000,4,2,2.0,430,168,2015.0,02/2016,6056,-31.85965981,116.056712
1 Hilltop Close,Mahogany Creek,272500,3,1,2.0,1799,140,1987.0,01/2005,6072,-31.90108,116.14282
1 Hilltop Place,Edgewater,492500,4,2,,736,197,1987.0,12/2017,6027,-31.76698,115.78496
1 Hillwater Promenade,Bennett Springs,565000,4,2,2.0,631,209,,05/2015,6063,-31.8612434,115.9386062
1 Hitek Court,Merriwa,280000,4,2,2.0,599,105,1990.0,11/2020,6030,-31.67284,115.71496
1 Holmesdale Road,Woodbridge,575000,3,1,2.0,510,112,1935.0,10/2016,6056,-31.89292,115.99591
1 Holywell Street,Middle Swan,495000,4,3,2.0,500,180,2012.0,01/2013,6056,-31.87473097,116.0125088
1 Honister Close,Balga,290000,4,1,2.0,714,132,1984.0,08/2019,6061,-31.8534138,115.8397022
1 Hood Street,Forrestfield,365000,3,1,2.0,700,120,1984.0,09/2020,6058,-31.99944892,116.012145
1 Horsemans View,Roleystone,670000,5,2,7.0,2783,284,2011.0,01/2019,6111,-32.13753366,116.0867356
1 Hulbert Street,South Fremantle,1200000,4,2,3.0,455,103,1965.0,01/2018,6162,-32.07436,115.75525
1 Huntington Road,Coogee,910000,3,3,2.0,706,280,1986.0,02/2019,6166,-32.11466,115.76909
1 Hydra Close,Rockingham,340000,3,1,2.0,725,105,1970.0,01/2019,6168,-32.29327,115.73428
1 Hynes Road,Dalkeith,1800000,4,2,2.0,1072,233,1985.0,02/2015,6009,-31.9961478,115.7896847
1 INGODA LINK,Baldivis,650000,5,1,,719,278,2013.0,05/2020,6171,-32.34367531,115.814739
1 Ingot Lane,Harrisdale,492000,4,2,2.0,446,197,2008.0,09/2020,6112,-32.11452587,115.9296236
1 Iona Place,Cannington,543800,4,2,2.0,527,158,1996.0,11/2017,6107,-32.01165,115.93722
1 Irma Way,Butler,360000,4,2,2.0,568,151,2006.0,04/2020,6036,-31.64276,115.70605
1 Ironcap Grove,Wandi,305000,4,2,2.0,439,185,2015.0,06/2015,6167,-32.20048161,115.8608325
1 Ivythorne Grove,Kiara,210000,3,1,2.0,534,125,1992.0,09/2013,6054,-31.88213,115.93384
1 Jacolite Street,Darch,530000,4,2,2.0,597,211,2006.0,08/2019,6065,-31.81164307,115.8494115
1 Jade Grove,Edgewater,480000,4,2,2.0,723,185,1982.0,02/2017,6027,-31.76818,115.78316
1 Jaffa Close,Seville Grove,375000,3,2,2.0,647,129,1994.0,10/2016,6112,-32.145346,115.9854452
1 Jamaican Road,Safety Bay,372500,3,2,1.0,688,160,1980.0,09/2017,6169,-32.30719,115.74437
1 Jameson Street,Mosman Park,980000,3,2,2.0,1140,135,1989.0,09/2017,6012,-32.01677624,115.7666944
1 Jaraba Avenue,Gooseberry Hill,1400000,3,2,1.0,2819,189,1920.0,12/2015,6076,-31.96416265,116.0464413
1 Jarrah Lane,Mount Claremont,1210000,3,2,2.0,309,220,2002.0,12/2020,6010,-31.96853,115.79211
1 Jaywick Close,Safety Bay,435000,4,2,,565,214,1997.0,07/2017,6169,-32.30164,115.72676
1 Jecks Street,Maida Vale,508000,4,2,2.0,561,199,2003.0,09/2020,6057,-31.95706,116.01909
1 Jeffrey Loop,Brookdale,315000,4,2,2.0,330,123,2014.0,03/2017,6112,-32.16939481,116.0083618
1 Jib Court,Ocean Reef,740000,3,2,,848,215,1989.0,07/2020,6027,-31.76898,115.7423
1 Jindabyne Street,Hilbert,493000,4,2,2.0,475,185,,07/2014,6112,-32.163197,115.9916304
1 Johnson Avenue,Guildford,561000,2,1,2.0,357,151,1900.0,10/2019,6055,-31.90124079,115.9694943
1 Jolimont Terrace,Jolimont,1100000,3,1,1.0,466,172,1920.0,06/2014,6014,-31.94424,115.81145
1 Josbury Corner,Carramar,605000,4,2,2.0,702,238,,02/2017,6031,-31.70727,115.79412
1 Jura Court,Duncraig,575000,3,1,1.0,739,129,1980.0,07/2018,6023,-31.83222514,115.7803186
1 Jurien Close,Warnbro,301000,4,2,1.0,714,104,1993.0,09/2018,6169,-32.33479,115.76476
1 Kadi Court,Marangaroo,380000,3,1,2.0,486,116,1990.0,07/2017,6064,-31.83453,115.84549
1 Kalara Road,Koongamia,350000,3,1,1.0,692,96,1955.0,12/2014,6056,-31.9068,116.03943
1 Kalara Way,Koongamia,172000,3,2,1.0,729,135,2003.0,09/2005,6056,-31.90621,116.03842
1 Kalbarri Pass,Jane Brook,725000,4,2,2.0,641,239,2015.0,09/2016,6056,-31.86176396,116.0570848
1 Kangaroo Entrance,Stratton,255000,3,1,2.0,539,90,1994.0,10/2019,6056,-31.86161,116.03936
1 Kartner Road,Tapping,500000,4,2,2.0,652,191,2006.0,01/2019,6065,-31.72592,115.79928
1 Kennack Vista,Atwell,617500,4,2,2.0,723,226,,04/2018,6164,-32.1418,115.86899
1 Kensington Street,Bellevue,520000,3,2,4.0,837,167,1999.0,03/2014,6056,-31.89893997,116.0338253
1 Kent Street,Viveash,300000,3,1,2.0,850,104,1969.0,03/2010,6056,-31.87724,116.00034
1 Kevin Street,Stoneville,533000,3,1,4.0,2024,167,1980.0,07/2014,6081,-31.8751,116.18084
1 Kilmurray Elbow,Huntingdale,415000,4,2,2.0,600,137,2002.0,04/2020,6110,-32.08833,115.95745
1 Kinkuna Way,City Beach,1645000,5,4,2.0,778,333,1974.0,09/2016,6015,-31.91382,115.76336
1 Kirkcolm Way,Warwick,655000,4,2,2.0,702,173,1982.0,02/2018,6024,-31.84202,115.79866
1 Kirke Cove,Merriwa,307000,4,2,2.0,462,149,2002.0,03/2018,6030,-31.663017,115.707587
1 Kirkstall Way,Sawyers Valley,405000,2,1,2.0,1833,109,1981.0,01/2008,6074,-31.90062,116.19866
1 Knaphill Heights,Mirrabooka,458000,6,2,1.0,626,136,1989.0,08/2016,6061,-31.85597209,115.8720644
1 Kookaburra Terrace,Ballajura,335000,4,1,4.0,704,101,1990.0,06/2018,6066,-31.83531353,115.8907374
1 Kooralbyn Way,Connolly,745000,4,2,2.0,827,209,,09/2014,6027,-31.74313,115.75396
1 Kutcharo Crescent,Joondalup,451000,3,1,1.0,729,114,1989.0,03/2019,6027,-31.72359,115.75795
1 Kyby Place,Carramar,719000,4,2,2.0,611,268,2006.0,07/2020,6031,-31.70664144,115.7936456
1 Kyle Place,Swan View,726000,4,3,2.0,2002,470,1979.0,12/2016,6056,-31.89313,116.06577
1 Lambeth Mews,Mount Claremont,2150000,5,3,2.0,1047,375,2000.0,09/2016,6010,-31.96237,115.77813
1 Lanark Street,Menora,875000,2,1,2.0,660,421,1930.0,01/2007,6050,-31.91975,115.85612
1 Langham Street,Nedlands,1200000,4,2,4.0,540,213,2012.0,04/2019,6009,-31.9730632,115.8067066
1 Lark Court,Yangebup,325000,3,1,1.0,350,137,,07/2019,6164,-32.1212,115.81912
1 Lark Mews,Ballajura,550000,3,1,2.0,812,230,1989.0,03/2020,6066,-31.83355,115.88702
1 Lauder Place,Kinross,525000,4,2,2.0,628,192,1994.0,08/2017,6028,-31.71787,115.7355
1 Laughton Way,Leeming,577000,3,2,2.0,329,138,2010.0,12/2019,6149,-32.06656535,115.867969
1 Lee Street,Forrestfield,305000,3,1,1.0,363,109,1981.0,01/2020,6058,-31.9957545,116.0121594
1 Leigh Court,Marangaroo,410000,3,1,1.0,474,120,,12/2016,6064,-31.83019,115.82905
1 Lena Street,Beckenham,385000,4,1,1.0,771,121,1984.0,01/2017,6107,-32.01824223,115.9549288
1 Lennoxtown Road,Duncraig,650000,5,2,1.0,701,179,1977.0,08/2020,6023,-31.83236,115.78233
1 Letchworth Centre Avenue,Salter Point,1000000,4,1,,1012,255,2003.0,06/2020,6152,-32.02242817,115.8685716
1 Librizzi Parade,Sinagra,530000,4,2,2.0,654,239,2008.0,11/2016,6065,-31.73905101,115.8032831
1 Lilypond Court,Ascot,555000,5,1,2.0,279,172,1995.0,06/2014,6104,-31.92644,115.94743
1 Lindeman Heights,Ridgewood,430000,4,2,2.0,715,190,,09/2018,6030,-31.66911,115.72681
1 Linnett Brace,Darch,550000,4,2,2.0,545,208,2009.0,12/2019,6065,-31.81636,115.83881
1 Lintonmarc Drive,Redcliffe,555000,4,2,2.0,496,169,2000.0,01/2017,6104,-31.94431,115.94518
1 Litchfield Crescent,Carramar,565000,3,2,2.0,677,190,2005.0,01/2018,6031,-31.71023649,115.7965458
1 Little Lefroy Lane,South Fremantle,950000,3,2,,270,194,2000.0,07/2020,6162,-32.0676128,115.7545084
1 Lorient Close,Warnbro,800000,4,2,4.0,2706,224,1993.0,06/2020,6169,-32.32928,115.74599
1 Love Street,Myaree,625000,4,2,,422,149,2001.0,10/2020,6154,-32.04018283,115.8122838
1 Luhrs Court,Mundaring,675000,4,2,,2000,189,1996.0,12/2020,6073,-31.89239,116.17272
1 Luke Place,Ascot,580000,4,2,2.0,462,185,2003.0,10/2016,6104,-31.92521012,115.9497051
1 Lundy Cove,Kiara,365000,4,2,1.0,455,128,1992.0,11/2009,6054,-31.87956,115.93454
1 Macdonald Road,Applecross,990000,3,1,4.0,401,84,1966.0,07/2017,6153,-32.01132011,115.8343708
1 Mackie Place,Midvale,375000,4,2,1.0,404,121,1998.0,12/2012,6056,-31.89125,116.01903
1 Maidos Street,Ashfield,358000,3,2,1.0,450,122,1997.0,06/2006,6054,-31.91705,115.93365
1 MAJORELLE WAY,Eglinton,279500,4,2,,510,231,2015.0,09/2015,6034,-31.5962686,115.6726446
1 Mal Bay Court,Mindarie,660000,4,1,,712,200,1998.0,09/2020,6030,-31.69765942,115.7136665
1 Malcolm Street,North Beach,1980000,2,2,1.0,637,114,,08/2018,6020,-31.85717835,115.7526601
1 Maley Court,Ashfield,435000,4,2,2.0,600,129,1996.0,08/2006,6054,-31.91783,115.93908
1 Malibu Entrance,Iluka,1500000,5,4,2.0,639,467,2003.0,09/2016,6028,-31.73776993,115.7251695
1 Malone Mews,Clarkson,299000,4,2,2.0,758,154,1996.0,09/2019,6030,-31.67738,115.7139
1 Manhattan Concourse,Hilbert,445000,3,2,2.0,302,155,2016.0,07/2016,6112,-32.18057352,115.967516
1 Mannaw Place,Hillman,315000,4,2,1.0,709,164,1976.0,03/2009,6168,-32.2868,115.76235
1 Mannix Pass,Queens Park,500000,4,2,2.0,441,160,2002.0,06/2016,6107,-32.0070209,115.948271
1 Marconi Street,Morley,650000,3,1,2.0,801,240,2008.0,08/2020,6062,-31.888625,115.9260026
1 Mardja Loop,Mardella,270000,4,2,,3030,214,2000.0,10/2002,6125,-32.30817184,115.9838028
1 Margaret Road,Secret Harbour,700000,4,2,3.0,605,250,2007.0,10/2020,6173,-32.4137457,115.7499086
1 Marich Cove,Atwell,442000,3,1,2.0,652,115,1994.0,07/2019,6164,-32.13147,115.86607
1 Maritana Road,Kallaroo,470000,3,1,2.0,407,100,1978.0,10/2016,6025,-31.79102,115.74804
1 Marker Road,Ocean Reef,940250,5,3,2.0,860,330,1988.0,05/2017,6027,-31.76473,115.74294
1 Markham Place,Bentley,375000,3,1,3.0,504,81,1986.0,05/2018,6102,-32.00646397,115.9217265
1 Maroma Loop,Burns Beach,672500,4,2,2.0,501,209,2012.0,01/2019,6028,-31.7222495,115.7296768
1 Martin Avenue,Rivervale,400000,3,1,,363,90,1966.0,08/2020,6103,-31.95561853,115.916921
1 Mayhill Place,Craigie,445000,3,2,,684,117,1978.0,03/2017,6025,-31.79108,115.76201
1 McBain Court,Langford,468000,4,2,2.0,703,184,1970.0,02/2018,6147,-32.04082,115.95064
1 Mcdermott Road,Kwinana Town Centre,145700,3,2,,206,120,2015.0,08/2013,6167,-32.24286002,115.8161455
1 McKenna Glen,Mount Claremont,1050000,4,2,2.0,476,201,1992.0,12/2017,6010,-31.96734,115.78543
1 McKenzie Corner,Bertram,470000,4,2,2.0,646,279,2005.0,06/2016,6167,-32.254559,115.84725
1 McNairn Cross,Leda,325000,4,2,2.0,542,150,,06/2015,6170,-32.26589,115.80606
1 Meadow Place,Hocking,360000,3,1,1.0,680,114,1989.0,07/2020,6065,-31.76526876,115.8128791
1 Meares Avenue,Parmelia,220000,4,2,2.0,711,118,2013.0,06/2019,6167,-32.24019,115.81652
1 Mears Way,Hilbert,276000,3,2,,332,143,2015.0,03/2015,6112,-32.16528477,115.992528
1 Medawar Loop,Piara Waters,618000,4,2,,524,202,,12/2020,6112,-32.1310864,115.914088
1 Meldrum Loop,Bedfordale,330000,4,3,,4815,315,,03/2016,6112,-32.16944266,116.0568073
1 Melissa Street,Duncraig,950000,4,2,2.0,716,245,1983.0,10/2020,6023,-31.81784,115.7646
1 Melita Drive,Helena Valley,464000,3,2,2.0,276,110,2013.0,04/2017,6056,-31.91391044,116.0257407
1 Melrose Crescent,Menora,1365000,4,3,3.0,1317,293,1955.0,05/2018,6050,-31.92307875,115.8602822
1 Memorial Avenue,Baskerville,1500000,3,1,1.0,54696,100,1974.0,10/2009,6056,-31.80052281,116.0124171
1 Mercer Place,Thornlie,300000,3,1,2.0,675,90,1975.0,12/2019,6108,-32.06477,115.95752
1 Merley Crescent,City Beach,1720000,4,2,2.0,840,251,,07/2019,6015,-31.92445085,115.7696125
1 Merlot Court,The Vines,455000,4,2,,706,280,1995.0,10/2017,6069,-31.75004,116.00258
1 Milina Street,Hillman,278000,3,1,2.0,780,88,1977.0,12/2014,6168,-32.28523,115.75853
1 Mingara Avenue,Harrisdale,1200000,4,3,2.0,753,438,2009.0,04/2018,6112,-32.11547772,115.9347183
1 Mission Place,Cooloongup,430000,4,2,2.0,802,197,1992.0,09/2017,6168,-32.28851,115.769
1 Moira Mews,Stratton,365000,4,2,2.0,568,125,1995.0,06/2015,6056,-31.86279,116.04176
1 Monarch Way,Wattle Grove,486000,3,2,2.0,454,150,2012.0,11/2016,6107,-32.00507281,115.9905399
1 Montana Crescent,Dayton,430000,3,2,2.0,254,124,2014.0,09/2015,6055,-31.85779855,115.9686595
1 Montrose Way,Nollamara,300000,3,1,1.0,893,98,1992.0,07/2020,6061,-31.87969259,115.8371891
1 Moody Glen,Palmyra,740000,5,2,2.0,534,176,1998.0,09/2019,6157,-32.04923,115.78686
1 Moseley Drive,The Vines,859000,4,2,4.0,1638,315,2008.0,12/2018,6069,-31.76139342,115.9919991
1 Mosman Loop,Success,540000,4,2,2.0,545,199,2010.0,08/2019,6164,-32.15405,115.84445
1 Mottee Road,Bateman,778000,4,2,2.0,757,182,1982.0,03/2016,6150,-32.05602,115.84681
1 Mudalla Way,Koongamia,385000,3,1,1.0,675,91,1959.0,09/2015,6056,-31.90607,116.04231
1 Mulberry Lane,Mirrabooka,410000,2,1,1.0,728,83,1988.0,02/2015,6061,-31.85864883,115.8671347
1 Mulgrave Loop,Mindarie,610000,5,2,2.0,711,274,2004.0,11/2020,6030,-31.67824124,115.7088917
1 Myhill Mews,Leda,215000,3,1,1.0,568,110,1993.0,08/2017,6170,-32.26273,115.80221
1 Namoi Street,Hammond Park,595000,4,1,,642,229,2006.0,10/2019,6164,-32.16283412,115.8454817
1 Nardie Place,Hillman,320000,3,1,2.0,682,152,1976.0,06/2014,6168,-32.28552,115.76148
1 Narla Place,Koongamia,262000,2,1,,751,90,1959.0,02/2010,6056,-31.90288,116.03947
1 Nettia Place,Bennett Springs,525000,4,2,2.0,558,198,,09/2014,6063,-31.85995266,115.9231624
1 New Ross Lane,Waterford,1050000,4,2,3.0,606,293,2001.0,11/2011,6152,-32.01535,115.89054
1 Newman Place,Kenwick,370000,7,2,2.0,670,199,1975.0,08/2019,6107,-32.03205495,115.9839055
1 Newmarket Retreat,Currambine,540000,4,3,2.0,734,169,1998.0,11/2019,6028,-31.74052,115.75349
1 newquay Street,Harrisdale,462500,4,2,2.0,451,190,2010.0,12/2018,6112,-32.11730851,115.929792
1 Niagara Cove,Bentley,438000,5,2,4.0,439,135,1996.0,12/2018,6102,-32.00766186,115.9140864
1 Nicholas Crescent,Hilton,467500,2,1,2.0,900,110,1951.0,12/2015,6163,-32.07035301,115.7819202
1 Nobilis Street,Beeliar,500000,4,2,2.0,477,184,2015.0,08/2019,6164,-32.13312954,115.8088136
1 Norfolk Rise,Mount Claremont,1900000,5,2,4.0,969,352,1992.0,09/2019,6010,-31.9633,115.78282
1 Northerly Avenue,Ascot,854000,3,2,2.0,304,189,2011.0,03/2015,6104,-31.93709715,115.9185057
1 Nundah Court,Glen Forrest,520000,3,1,2.0,1819,122,,08/2016,6071,-31.91779,116.10188
1 Nyjong Street,Kenwick,350000,4,2,2.0,431,141,1999.0,10/2018,6107,-32.04740777,115.9738778
1 Oakwood Court,Beechboro,475000,4,2,2.0,594,158,1991.0,06/2017,6063,-31.86783,115.92082
1 Oban Court,Duncraig,1115000,4,4,7.0,703,343,1980.0,07/2018,6023,-31.83433,115.77879
1 Odell Court,Carine,800000,4,2,4.0,712,120,1977.0,12/2016,6020,-31.84761,115.78237
1 Odell Street,Secret Harbour,385000,4,2,2.0,572,209,2005.0,08/2019,6173,-32.416,115.768131
1 Odessa Place,Beldon,550000,4,2,,723,148,,08/2015,6027,-31.77401,115.76383
1 Offord Street,Armadale,176500,3,1,1.0,694,109,1977.0,11/2019,6112,-32.15956,116.0022
1 Ollera Meander,Carramar,435000,4,2,2.0,741,187,,03/2017,6031,-31.71143,115.77914
1 Ollis Street,Safety Bay,360000,4,1,2.0,931,121,1972.0,02/2018,6169,-32.30174,115.71788
1 O'Mara Boulevard,Iluka,625000,4,2,2.0,355,225,2004.0,11/2020,6028,-31.73456015,115.7317112
1 Orange Valley Road,Kalamunda,582500,3,1,3.0,1070,86,1930.0,11/2020,6076,-31.97903,116.05679
1 Orsulich Loop,Spearwood,408000,3,2,2.0,328,113,,08/2020,6163,-32.11159241,115.7812942
1 Otway Street,Swanbourne,2302500,5,3,4.0,405,235,1930.0,05/2016,6010,-31.98102,115.76982
1 Palos Court,Sorrento,680000,4,2,3.0,607,210,1985.0,05/2020,6020,-31.82421,115.75973
1 Parish Lane,Churchlands,1400000,4,3,2.0,550,309,2003.0,06/2016,6018,-31.91618,115.79672
1 Park Lane,Kardinya,610000,4,2,2.0,549,182,1990.0,11/2019,6163,-32.0659,115.82623
1 Parkwood Avenue,Woodvale,554500,3,2,2.0,409,143,1992.0,11/2018,6026,-31.77945863,115.7863487
1 Peaceful Close,Marangaroo,420000,4,2,2.0,689,149,1998.0,06/2017,6064,-31.82195,115.84349
1 Pearson Crescent,Bull Creek,950000,6,3,6.0,691,260,1976.0,12/2017,6149,-32.06045,115.86766
1 Pedalstone Drive,Southern River,705000,4,2,,769,271,2008.0,07/2020,6110,-32.10177,115.94081
1 Peet Crescent,Trigg,780000,3,1,1.0,527,102,1974.0,07/2016,6029,-31.88597462,115.7608859
1 Pelion Court,Middle Swan,505000,4,2,2.0,484,184,2010.0,05/2014,6056,-31.87366996,116.0147774
1 Penn Lane,Hammond Park,515000,4,2,2.0,604,215,2003.0,01/2020,6164,-32.15997,115.8498
1 Penson Street,Singleton,345000,3,1,5.0,783,112,1990.0,07/2018,6175,-32.45555,115.75736
1 Pera Mews,Beldon,460000,4,1,2.0,718,120,1987.0,10/2014,6027,-31.78046,115.75923
1 Peter Way,Rossmoyne,1778000,5,3,3.0,950,388,2013.0,12/2018,6148,-32.04305,115.86412
1 Piermont Avenue,Burns Beach,900000,4,3,2.0,550,315,2008.0,07/2017,6028,-31.72401491,115.7303725
1 Pimelea Rise,Beeliar,495000,4,2,2.0,472,158,,11/2018,6164,-32.12854,115.81508
1 Pixie Place,Two Rocks,395000,5,2,4.0,536,227,2011.0,09/2020,6037,-31.504585,115.602387
1 Platypus Parkway,Beeliar,605000,4,2,2.0,567,217,,10/2018,6164,-32.13410411,115.8135413
1 Plover Way,Stirling,625000,3,2,3.0,641,164,1980.0,08/2020,6021,-31.87561,115.80505
1 Poinsettia Grove,South Lake,499000,4,2,2.0,700,216,1994.0,06/2016,6164,-32.09855,115.84578
1 Point Link,Alkimos,595000,4,2,2.0,631,255,2011.0,01/2019,6038,-31.60087269,115.6807476
1 Polglase Fairway,Clarkson,379000,4,2,2.0,662,210,1998.0,09/2020,6030,-31.68787,115.72299
1 Portland Way,Ridgewood,520000,4,2,2.0,653,166,2007.0,04/2015,6030,-31.657677,115.724889
1 Portsea Gardens,Jandakot,912000,4,3,2.0,593,323,1998.0,07/2014,6164,-32.10077,115.85451
1 Presto Close,Quinns Rocks,475000,4,2,,607,166,2001.0,01/2020,6030,-31.66272,115.69709
1 Printer Street,Dianella,560000,2,1,,684,164,1970.0,07/2020,6059,-31.89372,115.87927
1 Punai Place,Bickley,1000000,5,3,2.0,60024,236,1990.0,06/2009,6076,-32.00298,116.10673
1 Pursuit Close,Middle Swan,407000,4,2,1.0,615,136,1992.0,10/2015,6056,-31.87106,116.02654
1 Purvis Street,Hamilton Hill,470000,3,1,5.0,839,108,1960.0,07/2020,6163,-32.08354,115.79319
1 Quail Place,Langford,440000,4,1,1.0,800,116,1985.0,09/2015,6147,-32.03925,115.94447
1 Quenda Close,Beeliar,520000,4,2,2.0,545,211,2000.0,02/2019,6164,-32.12801,115.81709
1 Ragtime Court,Ascot,440000,3,2,1.0,250,99,1997.0,01/2016,6104,-31.92747,115.94654
1 Ramose Close,Heathridge,415000,3,1,1.0,712,96,1979.0,09/2020,6027,-31.76293,115.76445
1 Reflection Mews,Safety Bay,419000,3,2,2.0,741,214,2005.0,07/2019,6169,-32.30085198,115.7197475
1 Regatta Way,Alkimos,307000,4,2,2.0,370,144,2015.0,11/2019,6038,-31.60184192,115.6763786
1 Regent Court,Cockburn Central,515000,3,2,2.0,476,163,2001.0,11/2014,6164,-32.12682,115.845827
1 Reginald Street,Queens Park,670000,5,3,2.0,634,334,2013.0,11/2016,6107,-32.00268524,115.9546466
1 Reilly Street,Singleton,330000,3,1,1.0,964,100,1958.0,06/2017,6175,-32.44782,115.75332
1 Reinagle Street,Ashby,539000,4,2,4.0,606,267,2006.0,04/2017,6065,-31.72839,115.79846
1 Repens Way,Banksia Grove,370000,4,2,2.0,549,220,2006.0,07/2019,6031,-31.70068425,115.8044033
1 Reserve Street,Bicton,1820000,5,2,3.0,565,344,2000.0,04/2019,6157,-32.023018,115.785058
1 Retchford Way,Queens Park,560000,4,2,2.0,463,194,2010.0,04/2018,6107,-32.00498497,115.9521355
1 Reuben Street,Beaconsfield,590000,3,1,2.0,256,115,1960.0,12/2017,6162,-32.06387863,115.7576047
1 Riber Court,Carine,925000,5,3,2.0,741,283,1981.0,08/2016,6020,-31.85137028,115.7924463
1 Richards Crescent,Craigie,440000,3,1,,741,108,1986.0,03/2017,6025,-31.7799,115.77321
1 Rigoll Court,Mundijong,400000,3,1,2.0,873,106,1986.0,02/2014,6123,-32.28693,115.98654
1 Ringarooma Way,Willetton,670000,4,2,2.0,764,167,1984.0,12/2019,6155,-32.05836,115.89553
1 Ringmer Way,Westminster,380000,3,2,2.0,773,104,2007.0,11/2016,6061,-31.87030004,115.8414049
1 River Bank Boulevard,South Guildford,750000,4,2,2.0,632,224,,08/2015,6055,-31.89746,115.9871
1 River Bed Pass,Wilson,765000,4,2,2.0,722,181,1994.0,08/2019,6107,-32.02723,115.90929
1 Riverdale Road,Helena Valley,415000,4,2,2.0,626,154,1994.0,12/2018,6056,-31.916209,116.029513
1 Robert Street,Dalkeith,1700000,3,2,2.0,809,210,1964.0,02/2016,6009,-31.99276,115.79193
1 Robyn Street,Morley,520000,3,1,2.0,742,293,1964.0,12/2019,6062,-31.88360862,115.8882252
1 ROKER Way,Brabham,344000,3,2,2.0,323,119,,11/2018,6055,-31.81819146,115.9677547
1 Romani Court,Lockridge,400000,4,2,2.0,418,108,1999.0,05/2015,6054,-31.885,115.9474
1 Rosalind Court,Rossmoyne,1110000,4,2,2.0,877,226,1970.0,12/2018,6148,-32.04082519,115.870132
1 Rose Bay Court,Kallaroo,1150000,4,3,2.0,868,285,1992.0,01/2016,6025,-31.78729,115.7368
1 ROSTRATUS Link,Dayton,480000,3,2,2.0,395,146,2015.0,11/2016,6055,-31.86142468,115.9726678
1 Rothsay Crescent,Menora,915000,3,1,1.0,745,118,1952.0,04/2016,6050,-31.9183976,115.8629971
1 Rowe Place,Noranda,620000,3,2,2.0,801,150,2016.0,05/2017,6062,-31.87743947,115.8802942
1 Royal Melbourne Avenue,Connolly,705000,4,2,2.0,774,211,1990.0,07/2020,6027,-31.75275,115.75204
1 Royce Grove,Booragoon,932000,2,1,2.0,786,205,1982.0,10/2020,6154,-32.04205,115.82814
1 Ruby Avenue,Langford,482000,4,2,4.0,749,138,2000.0,05/2015,6147,-32.03383,115.94082
1 Ruby Court,Mount Richon,589000,5,2,1.0,1606,202,1987.0,01/2015,6112,-32.159955,116.0238033
1 Rudge Place,Lockridge,320000,3,1,1.0,475,93,1972.0,06/2014,6054,-31.88383025,115.9552588
1 Sabro Lane,Caversham,463000,3,2,2.0,429,170,,12/2016,6055,-31.86622648,115.9683871
1 Salamanca Parkway,Port Kennedy,345000,3,2,2.0,604,242,,03/2019,6172,-32.35546,115.76469
1 Salisbury Road,Beechboro,350000,4,1,1.0,539,110,1975.0,01/2017,6063,-31.87159,115.9329
1 Salmond Way,Bull Creek,802000,4,2,,775,249,1990.0,10/2017,6149,-32.0499631,115.8619822
1 Salvin Road,Gwelup,820000,4,2,2.0,302,205,2011.0,07/2015,6018,-31.87505528,115.7967669
1 Samos Place,Mindarie,790000,4,2,3.0,729,329,1995.0,12/2018,6030,-31.69037,115.7087
1 Sandalford Drive,Beldon,504000,3,1,1.0,690,120,1983.0,12/2015,6027,-31.77478,115.77203
1 Sandridge Street,Banksia Grove,330000,3,2,2.0,268,135,,10/2017,6031,-31.68985631,115.8080169
1 Sandringham Street,Trigg,1051000,3,2,2.0,817,145,1972.0,04/2017,6029,-31.88519996,115.7610159
1 Sapium Way,Woodvale,565000,4,2,4.0,546,204,,04/2019,6026,-31.79484,115.79616
1 Scarcliffe Way,Carine,1125000,5,3,,980,211,1988.0,11/2017,6020,-31.85297,115.76803
1 Scott Street,Kewdale,472000,3,2,2.0,331,139,2009.0,08/2017,6105,-31.97556419,115.9386716
1 Seabreeze Avenue,Burns Beach,860000,4,2,2.0,653,361,,06/2020,6028,-31.72319147,115.7203563
1 Seaflight Court,Heathridge,560000,5,2,2.0,904,159,1997.0,11/2019,6027,-31.75619,115.76207
1 Searle Road,Ardross,1390000,6,3,3.0,527,327,2006.0,10/2017,6153,-32.03168,115.8318
1 Sedge Link,Atwell,520000,4,2,2.0,558,255,2004.0,10/2018,6164,-32.1485618,115.8709936
1 Sellenger Avenue,Samson,462000,4,2,2.0,710,178,1981.0,05/2011,6163,-32.06761721,115.8008833
1 Seton Lane,Kinross,550000,4,2,2.0,725,231,1999.0,01/2017,6028,-31.71612,115.72981
1 Shackleton Street,Bassendean,600000,3,2,2.0,535,131,1923.0,02/2020,6054,-31.90961,115.94662
1 Sheppard Way,Marmion,1480000,4,3,2.0,708,428,1980.0,02/2017,6020,-31.84399,115.75399
1 Shiralee Bend,Carramar,650000,4,2,2.0,631,249,2006.0,03/2017,6031,-31.71055,115.79688
1 Shoal Court,Coogee,710000,4,2,2.0,885,182,1990.0,11/2020,6166,-32.12684,115.77035
1 Short Street,North Beach,912000,3,1,3.0,552,70,1973.0,10/2018,6020,-31.86238,115.75471
1 Silica Road,Wattle Grove,491000,4,2,2.0,531,22,,06/2016,6107,-31.99363062,115.9856234
1 Silky Lane,Wandi,303000,4,1,,437,199,2016.0,02/2015,6167,-32.19984019,115.8607572
1 Simon Place,City Beach,1450000,3,1,,993,200,1968.0,11/2019,6015,-31.92376,115.7645
1 Sistina Road,Ashby,450000,4,2,2.0,598,226,2006.0,02/2015,6065,-31.73741,115.79968
1 Skottowe Parkway,Parmelia,272000,3,1,2.0,680,119,,11/2016,6167,-32.25716,115.82251
1 Skye Lane,Ellenbrook,320000,3,2,2.0,386,150,2008.0,04/2020,6069,-31.76905861,115.9753687
1 Smailes Elbow,Brookdale,228750,3,2,2.0,385,133,2013.0,07/2013,6112,-32.17057292,116.0057903
1 Smitherson Street,Noranda,585000,5,3,6.0,685,286,1989.0,11/2018,6062,-31.87154,115.89044
1 Smullin Street,Hamilton Hill,470000,3,2,4.0,448,104,1999.0,03/2020,6163,-32.08078,115.77248
1 SNOWY RISE,Hammond Park,445000,4,2,2.0,581,205,2004.0,08/2020,6164,-32.1635692,115.8484775
1 Solly Court,Bull Creek,1300000,6,3,2.0,847,302,1978.0,01/2018,6149,-32.05328,115.86667
1 Spargo Street,Myaree,765000,4,2,4.0,437,181,2000.0,05/2017,6154,-32.04014104,115.8187311
1 Spring Hill,Tapping,597000,4,2,2.0,554,202,2008.0,11/2020,6065,-31.72506041,115.7913728
1 Spruce Place,Thornlie,490000,4,2,2.0,612,230,1997.0,01/2019,6108,-32.0647,115.9436
1 Spruce Terrace,Aubin Grove,512888,4,2,4.0,516,160,2009.0,06/2018,6164,-32.17607691,115.8595407
1 St Fillans Bend,Wanneroo,465000,4,2,2.0,632,205,2000.0,12/2019,6065,-31.77821,115.80773
1 St Ives Loop,Kallaroo,2195000,4,4,4.0,1000,477,2009.0,03/2016,6025,-31.79387,115.73713
1 Staniland Street,Orange Grove,899000,4,2,4.0,17524,324,2012.0,05/2017,6109,-32.04728719,116.0161648
1 Stephen Street,Queens Park,480000,3,3,2.0,305,180,2015.0,03/2016,6107,-32.0038586,115.9476433
1 Stitfold Promenade,Salter Point,1300000,4,2,4.0,542,319,2002.0,03/2018,6152,-32.01832,115.85814
1 Stokesay Street,Orelia,418000,5,2,2.0,594,209,2006.0,06/2016,6167,-32.229927,115.821234
1 Strathmore Parkway,Ellenbrook,350000,4,2,2.0,360,183,2006.0,12/2020,6069,-31.771121,115.972418
1 Strathpine Chase,Landsdale,575000,4,2,2.0,699,256,2005.0,12/2019,6065,-31.81223,115.86368
1 Strelley Lane,Carramar,512600,4,2,2.0,675,227,2002.0,04/2020,6031,-31.71053,115.78255
1 Stretton Way,Kenwick,275000,3,1,1.0,659,90,1972.0,11/2017,6107,-32.03748,115.97882
1 Strickland Court,Coogee,770000,6,2,4.0,705,268,1988.0,11/2018,6166,-32.11715,115.77514
1 Styne Road,City Beach,1800000,4,2,2.0,736,230,1974.0,04/2018,6015,-31.92540258,115.7613588
1 Success Crescent,Salter Point,1555000,4,2,2.0,876,363,2002.0,11/2016,6152,-32.02154,115.85944
1 Sumich Gardens,Coogee,715000,4,2,2.0,620,204,,09/2015,6166,-32.10983,115.77297
1 Swallow Grove,Waikiki,360000,3,1,1.0,693,121,1992.0,12/2020,6169,-32.31177,115.74693
1 Sweeney Way,Padbury,579000,4,1,1.0,697,106,1972.0,09/2017,6025,-31.79957,115.75498
1 Talisker Mews,Ballajura,420000,5,2,2.0,585,187,1994.0,07/2018,6066,-31.84665,115.91469
1 Tall Karri Close,Camillo,370000,4,2,3.0,695,135,1993.0,02/2016,6111,-32.11623105,116.0039761
1 Tattler Place,Huntingdale,323000,3,1,2.0,754,139,1990.0,07/2019,6110,-32.08391766,115.968026
1 Taylor Street,White Gum Valley,845000,5,2,2.0,519,171,1910.0,01/2016,6162,-32.06176,115.77392
1 Teetree Court,Beechboro,500000,5,2,2.0,706,164,1990.0,12/2017,6063,-31.8662,115.92272
1 Temple Mews,Iluka,928250,4,3,2.0,822,257,2010.0,09/2016,6028,-31.74,115.72891
1 Tenella Mews,Warnbro,300000,4,2,2.0,532,140,1993.0,06/2019,6169,-32.34082,115.76518
1 Tennyson Street,Bellevue,400000,3,1,1.0,934,124,1950.0,01/2016,6056,-31.89756,116.03252
1 Tetbury Road,Butler,500000,4,2,2.0,535,150,2003.0,12/2020,6036,-31.65352168,115.7064859
1 The Mead,Kiara,450000,4,2,4.0,535,150,1994.0,09/2009,6054,-31.87955,115.93667
1 The Mews,Kardinya,730000,4,2,2.0,700,187,1994.0,08/2017,6163,-32.06032,115.82225
1 Thomas Hamilton Avenue,Mirrabooka,450000,4,2,,516,204,2001.0,07/2020,6061,-31.86795,115.86599
1 Thorman Place,Booragoon,905000,4,2,2.0,829,215,2012.0,09/2019,6154,-32.03310283,115.8419184
1 Thornbill Loop,Beeliar,429000,4,2,1.0,435,118,1996.0,03/2017,6164,-32.12948,115.82358
1 Thurlow Avenue,Yokine,525000,3,1,,386,117,1957.0,10/2020,6060,-31.9010744,115.8557645
1 Till Street,Herne Hill,370000,3,1,1.0,808,100,1970.0,06/2014,6056,-31.82556,116.02173
1 Tintern Road,Ashby,465000,3,2,2.0,298,128,2006.0,04/2015,6065,-31.73707065,115.8001464
1 Tippett Court,Willetton,680000,4,2,2.0,686,193,1992.0,10/2019,6155,-32.06054,115.89665
1 Tiwi Court,Iluka,826000,4,2,2.0,688,257,2000.0,12/2018,6028,-31.73075,115.73307
1 Tolbury Retreat,Kiara,420000,4,2,4.0,653,143,1994.0,07/2018,6054,-31.88237,115.94231
1 Torre Link,Darch,560000,4,2,4.0,518,218,2010.0,02/2017,6065,-31.816573,115.851355
1 Torridon Loop,Wanneroo,725000,4,2,2.0,740,243,1997.0,06/2018,6065,-31.77572,115.8076
1 Treaty Oak Cove,Bibra Lake,600000,4,2,2.0,830,300,1995.0,01/2019,6163,-32.09059,115.81411
1 Treave Street,Cloverdale,450000,3,2,2.0,311,134,2003.0,07/2017,6105,-31.97036143,115.940989
1 Triller Road,Bennett Springs,515000,4,2,2.0,515,164,2009.0,08/2015,6063,-31.85787729,115.9286816
1 Trilogy Court,The Vines,1030000,4,3,4.0,1545,458,2001.0,04/2019,6069,-31.76598,115.99372
1 Trona Place,Forrestfield,395000,4,2,2.0,572,158,1994.0,09/2018,6058,-31.98870201,115.9899781
1 Tropicana Way,Safety Bay,753000,5,3,4.0,856,375,1994.0,07/2019,6169,-32.31132,115.73453
1 Troy Avenue,Marmion,1600000,4,2,2.0,899,277,1979.0,07/2011,6020,-31.84345,115.75221
1 Tucker Street,Medina,270000,4,1,4.0,931,106,1969.0,08/2015,6167,-32.2316,115.79954
1 Tuckeroo Parade,Helena Valley,785000,4,2,2.0,983,249,,01/2015,6056,-31.9138053,116.0261016
1 Tullow Road,Floreat,1575000,5,3,3.0,971,219,1972.0,09/2020,6014,-31.93726426,115.7814837
1 Turner Parkway,Carramar,479100,4,3,2.0,624,193,2006.0,04/2019,6031,-31.71046806,115.7975779
1 Turner Street,Warnbro,310000,3,1,1.0,872,138,1980.0,11/2019,6169,-32.33464,115.74926
1 TWIN VIEW,Swan View,595000,4,2,4.0,869,324,2001.0,11/2018,6056,-31.87482,116.05267
1 Umina Street,High Wycombe,296000,2,1,2.0,764,84,1971.0,04/2018,6057,-31.93901263,116.0088239
1 Valencia Avenue,Churchlands,935000,3,2,2.0,497,214,1999.0,11/2015,6018,-31.91611563,115.7854829
1 Valencia Road,Carmel,670000,4,2,3.0,3104,198,1973.0,11/2009,6076,-32.01964,116.09531
1 Valley Close,Canning Vale,1200000,5,2,6.0,10000,290,1988.0,10/2019,6155,-32.08516,115.90319
1 Vantage Way,Burswood,1585000,4,2,,301,233,2015.0,12/2015,6100,-31.95795076,115.8974433
1 Veldt Mews,Mirrabooka,370000,3,1,1.0,677,95,1990.0,08/2016,6061,-31.85177,115.86838
1 Venetian Way,Baldivis,435000,4,2,2.0,526,224,2014.0,09/2020,6171,-32.3154684,115.8168636
1 Verve Court,Marmion,1255000,5,3,2.0,459,192,2011.0,08/2017,6020,-31.84166857,115.7533065
1 Vilamour Close,Currambine,582000,4,2,2.0,773,228,1991.0,07/2017,6028,-31.74087,115.74556
1 Viola Place,Beechboro,485000,4,2,4.0,500,160,1997.0,02/2019,6063,-31.86855,115.9236
1 Violet Street,Middle Swan,410000,3,1,1.0,830,130,1970.0,07/2014,6056,-31.87861,116.00864
1 Virgilia Terrace,South Lake,565000,4,2,3.0,708,181,1989.0,10/2017,6164,-32.10389,115.84902
1 Voyager Link,Pearsall,449000,3,3,2.0,318,250,2011.0,10/2016,6065,-31.78514118,115.8253031
1 Wake Court,Redcliffe,390000,3,1,2.0,416,126,1994.0,11/2016,6104,-31.94074,115.94536
1 Wallace Street,Mundijong,640000,4,2,,1999,206,2000.0,05/2017,6123,-32.29332,115.98001
1 Wambiri Close,South Lake,510000,4,2,2.0,517,177,2005.0,03/2016,6164,-32.11270143,115.8414863
1 Warlu Place,High Wycombe,315000,4,2,2.0,620,141,2002.0,12/2018,6057,-31.93469,116.00074
1 Warnt Court,South Guildford,430000,4,2,2.0,742,154,1998.0,02/2017,6055,-31.91635,115.98744
1 Waterway Crescent,Ascot,1250000,4,2,3.0,556,322,2001.0,02/2016,6104,-31.93687,115.91779
1 Wattle Court,Mahogany Creek,740000,4,2,2.0,2001,212,1997.0,07/2014,6072,-31.90238,116.1394
1 Waugh Court,North Lake,1150000,5,2,4.0,855,416,,09/2013,6163,-32.077,115.81942
1 Wayford Circle,Hocking,595000,4,2,2.0,622,241,2004.0,11/2016,6065,-31.76976,115.81382
1 Webb Street,Rossmoyne,670000,3,1,,531,115,1967.0,02/2015,6148,-32.0421094,115.8669182
1 Weema Court,Swan View,560000,6,3,2.0,1068,302,1990.0,02/2020,6056,-31.89084,116.04309
1 Weetman Cove,Cannington,402600,3,2,2.0,281,120,1998.0,07/2016,6107,-32.00447,115.9314
1 Wendo Court,Hillman,345000,4,1,1.0,693,101,1986.0,10/2013,6168,-32.28523,115.76052
1 Wenstead Place,Stratton,357000,4,3,1.0,686,103,1993.0,10/2015,6056,-31.86627,116.03828
1 Werri Place,Clarkson,378000,3,2,2.0,344,151,2006.0,07/2020,6030,-31.69303,115.73056
1 Wescap Rise,Merriwa,300000,4,1,1.0,684,121,1989.0,09/2018,6030,-31.67151,115.71105
1 Whelk Place,Mullaloo,775000,3,2,3.0,706,244,1995.0,11/2020,6027,-31.77578,115.74413
1 White Place,Subiaco,753000,3,2,,261,118,1988.0,10/2020,6008,-31.94306086,115.8343902
1 White Street,North Fremantle,785000,3,1,1.0,329,137,1920.0,08/2020,6159,-32.032201,115.7534563
1 Whitehouse Drive,Koondoola,475000,3,1,1.0,998,87,,09/2013,6064,-31.84546,115.86126
1 Wildwood Mews,Carramar,539000,4,2,,586,228,2015.0,08/2020,6031,-31.69045846,115.7891053
1 Willard Circuit,Banksia Grove,385000,3,2,2.0,313,142,2012.0,08/2017,6031,-31.69154391,115.8043633
1 Williams Court,Melville,1200000,5,2,1.0,513,237,1961.0,01/2019,6156,-32.03883414,115.802797
1 Williamson Way,Trigg,840000,4,3,2.0,442,159,1960.0,02/2015,6029,-31.86704956,115.7609603
1 Willow Way,Gooseberry Hill,650000,4,2,8.0,957,220,1977.0,04/2015,6076,-31.95625,116.03402
1 Wilson Lane,Bateman,654000,4,2,2.0,617,216,1992.0,06/2017,6150,-32.04654,115.85061
1 Wimbledon Drive,Kingsley,627500,4,2,2.0,700,179,1982.0,03/2020,6026,-31.8122,115.78862
1 Windoo Place,Koongamia,292500,3,1,1.0,751,112,1959.0,11/2006,6056,-31.90442,116.04304
1 Windoo Road,Parkerville,655000,4,2,,2404,254,1975.0,02/2013,6081,-31.88249,116.13283
1 Wintergreene Drive,Bennett Springs,492000,4,2,2.0,666,245,2006.0,09/2020,6063,-31.85752763,115.9322414
1 Wissota Pass,Secret Harbour,546000,4,2,2.0,613,185,2003.0,01/2020,6173,-32.40748,115.76296
1 Woodbine Loop,Tapping,500000,4,2,,700,204,2004.0,04/2020,6065,-31.71472,115.78781
1 Woodbine Terrace,Mirrabooka,420000,4,1,6.0,765,147,1990.0,02/2016,6061,-31.85253,115.87533
1 Woodfield Close,Mount Helena,435000,3,2,4.0,2000,142,1999.0,12/2020,6082,-31.86646,116.21108
1 Woodlands Way,Jandakot,600000,4,2,4.0,441,234,2001.0,08/2018,6164,-32.10266016,115.8553704
1 Woolmore Cross,Atwell,505000,4,2,2.0,671,161,,03/2018,6164,-32.13925,115.86983
1 Yallambee Place,Karawara,662500,2,1,2.0,976,94,,09/2020,6152,-32.00846545,115.876716
1 Yilgarn Street,White Gum Valley,925000,3,2,2.0,411,164,2000.0,12/2014,6162,-32.0622,115.76197
1 Yule Street,City Beach,1550000,4,2,4.0,975,220,1973.0,05/2018,6015,-31.92153,115.76581
1 Zamia Road,Gooseberry Hill,575000,3,1,6.0,2113,220,,02/2015,6076,-31.95990117,116.0399311
1 Zanzibar Loop,Aveley,540000,3,2,3.0,687,209,2009.0,09/2020,6069,-31.78504845,115.9852646
1/1 Coolgardie Street,West Perth,480000,2,2,2.0,813,87,2008.0,03/2020,6005,-31.94893602,115.8477325
1/1 French Street,Ashfield,455000,3,2,2.0,345,146,2009.0,11/2017,6054,-31.91532844,115.9340203
1/1 Lentona Road,Attadale,419000,2,1,1.0,1982,77,1970.0,09/2019,6156,-32.03103,115.81324
1/1 Muriel Avenue,Woodlands,960000,4,2,2.0,270,222,2003.0,10/2016,6018,-31.9017862,115.7918351
1/1 Wingfield Avenue,Crawley,950000,1,1,1.0,221,95,1968.0,08/2015,6009,-31.97354047,115.8247434
1/10 Gibson Street,Mount Pleasant,640000,3,1,3.0,373,94,1987.0,08/2019,6153,-32.01903093,115.8451005
1/101 Epsom Avenue,Redcliffe,407000,3,1,2.0,3643,101,1990.0,04/2015,6104,-31.93973337,115.9371684
1/109 Kenny Street,Bassendean,230000,2,1,1.0,2569,81,1976.0,09/2019,6054,-31.91116026,115.94699
1/11 Adamson Road,Brentwood,555000,3,1,2.0,774,82,1989.0,12/2014,6153,-32.04427,115.85158
1/11 Elvire Street,Viveash,400000,3,1,,396,101,1995.0,08/2014,6056,-31.88478314,116.000386
1/11 Stott Close,Armadale,156500,3,1,1.0,2354,79,1992.0,03/2020,6112,-32.13668855,116.0091336
1/11 Waterway Crescent,Ascot,482000,3,1,1.0,462,89,1999.0,08/2015,6104,-31.93681,115.91664
1/12 Catalina Place,Quinns Rocks,570000,3,2,2.0,3037,218,,04/2020,6030,-31.66319477,115.6913888
1/12 Farnaby Lane,Beckenham,315000,3,1,2.0,3252,79,1989.0,11/2016,6107,-32.00978,115.96929
1/125 Swansea Street,East Victoria Park,430000,3,1,3.0,442,114,1948.0,11/2018,6101,-31.98867,115.90918
1/126 Telford Crescent,Stirling,615000,3,2,2.0,265,124,2007.0,09/2020,6021,-31.89162083,115.8162573
1/13 Helm Street,Mount Pleasant,807000,3,2,1.0,364,154,1992.0,04/2019,6153,-32.01492,115.84984
1/13 Rimmington Court,South Lake,325000,3,1,2.0,4004,97,2003.0,03/2016,6164,-32.11526515,115.8383193
1/13 Sorrento Street,North Beach,850000,3,2,2.0,183,167,1984.0,12/2017,6020,-31.85923,115.7537
1/14 Godwit Street,Queens Park,400000,3,2,2.0,1768,139,2011.0,05/2016,6107,-32.00256687,115.9384797
1/14 Greenshank Drive,Joondalup,640000,3,2,2.0,500,200,2006.0,05/2020,6027,-31.74711277,115.7769907
1/14 Mineral Place,Forrestfield,341500,3,2,1.0,440,131,1994.0,08/2018,6058,-31.9926,115.99577
1/14a Norman Street,St James,450000,3,2,2.0,266,119,2009.0,07/2016,6102,-31.99502415,115.9153033
1/15 Bredgar Way,Marangaroo,340000,3,1,2.0,500,107,1994.0,02/2019,6064,-31.83094,115.82939
1/15 Cook Street,Crawley,625000,3,1,2.0,1366,116,1981.0,11/2016,6009,-31.98373,115.81622
1/15 Lisbon Court,Parkwood,339000,3,1,2.0,1012,120,1992.0,11/2018,6147,-32.04397,115.90672
1/157 Kinross Drive,Kinross,285000,2,1,1.0,183,101,,10/2018,6028,-31.71394,115.72867
1/159 Mcdonald Street,Joondanna,422000,2,1,2.0,809,78,1991.0,03/2017,6060,-31.90575,115.83333
1/16 Coneflower Corner,Churchlands,890000,3,2,2.0,1862,135,,04/2017,6018,-31.9238941,115.7911103
1/16 Leverburgh Street,Ardross,766000,4,2,2.0,200,188,2005.0,01/2019,6153,-32.0312658,115.8351564
1/16 Tavistock Crescent,Lynwood,370000,3,1,3.0,1037,106,1967.0,10/2015,6147,-32.03661923,115.9313359
1/163 Tyler Street,Tuart Hill,140000,2,1,1.0,2024,65,1974.0,06/2018,6060,-31.89775993,115.8305517
1/164 McDonald Street,Joondanna,640000,4,2,2.0,1062,251,1995.0,10/2020,6060,-31.90636,115.83417
1/165 Canning Highway,South Perth,680000,3,1,1.0,717,130,1928.0,12/2020,6151,-31.98431925,115.8740861
1/17 Elizabeth Street,East Cannington,408000,3,2,2.0,339,122,2006.0,01/2019,6107,-32.00368064,115.9604578
1/17 Satellite Retreat,Kiara,370000,3,1,3.0,373,125,,07/2017,6054,-31.88421613,115.9356064
1/18 Coongan Avenue,Greenmount,527500,3,1,,675,101,1950.0,08/2014,6056,-31.90310952,116.0443219
1/18 Devon Way,Lynwood,387000,3,1,2.0,378,116,1967.0,03/2015,6147,-32.03803937,115.9316336
1/18 Mary Street,Highgate,742000,2,1,1.0,183,105,1994.0,10/2014,6003,-31.93780339,115.8687732
1/182 Fulham Street,Kewdale,300000,2,1,1.0,146,86,1993.0,07/2018,6105,-31.96767315,115.9347638
1/19 Drabble Road,Scarborough,721000,5,2,1.0,1886,127,1962.0,10/2019,6019,-31.89980869,115.7638275
1/19 Flora Terrace,Watermans Bay,500000,3,1,,216,99,1989.0,12/2014,6020,-31.847625,115.755343
1/19 Roseheath Boulevard,Kiara,370000,3,1,2.0,351,99,1995.0,06/2017,6054,-31.87950075,115.9378819
1/19 Tamar Street,Palmyra,500000,3,1,2.0,1048,120,1963.0,10/2019,6157,-32.04445,115.78021
1/20 Holton Way,Cannington,335000,3,2,1.0,261,115,2008.0,07/2019,6107,-32.01118689,115.937885
1/202 Crawford Road,Inglewood,485000,3,1,1.0,357,13,1979.0,11/2018,6052,-31.91821,115.8891
1/205 French Street,Tuart Hill,525000,4,1,2.0,1215,170,1956.0,07/2019,6060,-31.89597,115.83657
1/208 Albert Street,Osborne Park,365000,3,1,,1012,112,1994.0,07/2020,6017,-31.89402,115.826
1/21 Fletcher Street,Applecross,685000,3,2,1.0,219,123,1993.0,01/2018,6153,-32.01885,115.8339
1/218 Westview Street,Scarborough,450000,3,1,1.0,1277,100,1988.0,05/2020,6019,-31.89767,115.7743
1/22 Ada Street,Watermans Bay,1250000,4,3,5.0,397,238,1997.0,02/2016,6020,-31.84997,115.75395
1/22 Harper Street,Woodbridge,395000,3,2,1.0,151,108,1996.0,05/2015,6056,-31.88858,115.99603
1/22 Manoff Road,Balcatta,292000,2,1,1.0,776,82,1992.0,05/2018,6021,-31.88674,115.83599
1/22 Prinsep Road,Melville,655000,3,2,2.0,377,144,2002.0,09/2017,6156,-32.03603452,115.7972473
1/22 Redgate Court,Kiara,410000,3,1,1.0,363,110,1994.0,06/2014,6054,-31.88305922,115.9412048
1/23 Avonmore Terrace,Cottesloe,670000,2,1,1.0,910,62,1964.0,11/2020,6011,-32.00378889,115.7536968
1/23 Golf Road,Parkwood,338000,2,1,1.0,286,70,1986.0,11/2015,6147,-32.04021,115.90682
1/24 Coventry Road,Shoalwater,310000,2,1,1.0,1535,79,1991.0,06/2019,6169,-32.29384,115.70784
1/24 Melinga Court,Karawara,427500,3,1,1.0,251,126,,03/2010,6152,-32.00953,115.88414
1/242 French Street,Tuart Hill,432000,3,1,1.0,239,101,1995.0,02/2017,6060,-31.89354,115.83735
1/265 Kooyong Road,Kewdale,357500,3,1,2.0,1620,116,1989.0,10/2017,6105,-31.97222,115.92651
1/268 Guildford Road,Maylands,432000,3,1,2.0,891,98,1952.0,11/2019,6051,-31.92926,115.89885
1/27 Osborne Road,East Fremantle,475000,3,1,1.0,4038,93,1970.0,10/2020,6158,-32.03923893,115.768818
1/28 Alday Street,St James,530000,4,2,2.0,312,133,2003.0,11/2017,6102,-31.99496,115.91071
1/29 Chetwynd Way,Booragoon,440000,2,1,1.0,2729,74,1980.0,06/2017,6154,-32.04215,115.83601
1/29 Money Road,Melville,610000,3,2,2.0,218,130,,02/2019,6156,-32.03395748,115.7999173
1/29 Seaforth Road,Shoalwater,600000,4,3,2.0,340,250,2010.0,06/2020,6169,-32.30242393,115.7086502
1/29 Spoonbill Place,Queens Park,435000,4,2,2.0,281,113,2006.0,05/2016,6107,-32.00705737,115.9510611
1/29 Stratford Street,East Fremantle,430000,2,1,1.0,912,82,1987.0,07/2019,6158,-32.03557,115.77361
1/3 Addlewell Glen,Kiara,370000,3,1,1.0,454,120,1993.0,11/2010,6054,-31.88059883,115.9341226
1/3 Clive Road,Cottesloe,1026000,3,2,2.0,235,160,2009.0,04/2020,6011,-31.98787501,115.7680552
1/3 Hope Road,Palmyra,445000,2,1,2.0,303,83,1986.0,01/2019,6157,-32.03864,115.79073
1/3 Stockman Way,Cannington,508000,4,2,2.0,368,181,2001.0,05/2016,6107,-32.00735,115.93221
1/30 Milford Way,Nollamara,450000,3,2,2.0,701,149,2007.0,07/2019,6061,-31.88827121,115.8428688
1/301 Oxford Street,Leederville,400000,1,1,2.0,181,73,2009.0,07/2018,6007,-31.92956755,115.8409125
1/31 Harvest Road,North Fremantle,1100000,3,2,2.0,359,176,1920.0,12/2016,6159,-32.03291416,115.7568367
1/31 Mosaic Street,Shelley,755000,4,2,2.0,1390,139,1998.0,12/2015,6148,-32.02547,115.89323
1/31 Second Avenue,Kensington,780000,3,2,2.0,237,223,2001.0,04/2015,6151,-31.97673,115.88445
1/31 Troy Terrace,Daglish,1250000,3,2,2.0,810,181,2008.0,05/2014,6008,-31.95121831,115.8101836
1/31 Villiers Street,Yokine,370000,3,1,1.0,243,109,2000.0,08/2020,6060,-31.89378,115.84869
1/32 Camboon road,Morley,270000,3,1,1.0,8116,105,,07/2020,6062,-31.88313,115.88918
1/32 Fraser Street,East Fremantle,495000,2,1,1.0,8415,91,1976.0,04/2020,6158,-32.03553591,115.7682201
1/32 Hubert Road,Maylands,420000,3,1,2.0,2024,84,1985.0,07/2020,6051,-31.93513084,115.9022045
1/326 Preston Point Road,Attadale,675000,3,2,2.0,400,162,1989.0,08/2018,6156,-32.03167662,115.7980925
1/33 Holmesdale Road,Woodbridge,335000,3,1,1.0,1012,86,1994.0,03/2014,6056,-31.89344,115.9919
1/33 Steward Way,Orelia,160000,2,1,2.0,205,74,1985.0,03/2017,6167,-32.23198,115.81727
1/335 Oxford Street,Leederville,880000,4,3,2.0,243,170,2012.0,10/2020,6007,-31.92760335,115.8408894
1/34 Banksia Street,Joondanna,585000,3,1,2.0,257,100,1949.0,09/2016,6060,-31.91118678,115.8401045
1/341 Wharf Street,Queens Park,315000,3,1,4.0,1474,115,1985.0,03/2017,6107,-31.99952,115.95372
1/35 Collier Avenue,Balcatta,341000,3,1,1.0,246,87,1990.0,01/2018,6021,-31.87862,115.83182
1/36 Wood Street,Inglewood,565000,3,2,2.0,174,110,2004.0,02/2017,6052,-31.9159773,115.8879204
1/38 Brandon Street,Kensington,600000,3,2,,631,104,2007.0,04/2019,6151,-31.97954972,115.8793322
1/38 Norman Street,St James,360000,3,1,1.0,265,86,1995.0,07/2020,6102,-31.99717,115.91699
1/39 Beatty Avenue,East Victoria Park,440000,3,1,2.0,242,101,,10/2018,6101,-31.97998,115.90764
1/39 Cape Street,Osborne Park,435000,3,2,2.0,245,120,,07/2016,6017,-31.90162944,115.823568
1/39 Ferguson Street,Midvale,400000,4,2,2.0,1058,108,2008.0,08/2014,6056,-31.88973,116.01889
1/4 Classic Rise,Pearsall,465000,4,2,2.0,300,137,2014.0,01/2017,6065,-31.78428816,115.8198779
1/4 Lentona Road,Attadale,490000,3,1,2.0,327,115,1989.0,10/2018,6156,-32.03115,115.81272
1/4 Leslie Street,Cannington,430000,3,2,2.0,399,177,1960.0,06/2016,6107,-32.01254,115.93065
1/4 Manley Street,Cannington,334000,3,1,2.0,102,97,1981.0,11/2015,6107,-32.01043,115.93264
1/4 Talbot Road,Woodlands,415000,2,1,1.0,201,75,1988.0,07/2020,6018,-31.90822,115.79917
1/40 Mica Mews,Wattle Grove,360000,3,2,2.0,2497,145,,11/2019,6107,-31.99087391,115.9854633
1/41 Baler Court,Hammond Park,480000,3,2,2.0,22812,154,,10/2017,6164,-32.15839374,115.8540777
1/41 Hooley Road,Midland,337500,3,1,1.0,535,114,1946.0,08/2015,6056,-31.88941029,116.0177367
1/41 Renwick Street,South Perth,730000,3,2,2.0,836,137,1994.0,10/2018,6151,-31.98676,115.87168
1/42 Byers Road,Woodbridge,316000,3,1,1.0,1310,84,1994.0,06/2008,6056,-31.88911975,115.9960348
1/42 Cleopatra Street,Palmyra,460000,3,1,1.0,257,106,,05/2019,6157,-32.0417,115.7837
1/43 Ferguson Street,Middle Swan,445000,4,2,,440,153,2013.0,09/2013,6056,-31.86558536,116.0227493
1/43 John Street,Inglewood,630000,3,2,2.0,1012,127,1996.0,02/2019,6052,-31.92401558,115.8858263
1/46 Charles Street,Midland,167500,3,2,2.0,1012,99,2004.0,11/2016,6056,-31.883591,116.008964
1/48 Collier Avenue,Balcatta,359000,3,1,2.0,1012,117,1989.0,10/2020,6021,-31.87694,115.83202
1/48 Thelma Street,Como,525000,3,2,2.0,1062,135,1993.0,06/2019,6152,-31.99595,115.86403
1/49 Discovery Circuit,Iluka,715000,3,2,2.0,372,176,2014.0,12/2020,6028,-31.74098689,115.7270701
1/49 Rule Street,North Fremantle,2050000,3,3,2.0,2198,257,,08/2016,6159,-32.02870766,115.7550573
1/49 South Street,Kardinya,405000,2,1,2.0,810,114,1969.0,11/2018,6163,-32.06825,115.82245
1/5 Arpent Link,Brabham,364000,4,2,4.0,365,175,2015.0,12/2017,6055,-31.81423191,115.9741424
1/50 King Street,Coogee,440000,3,2,2.0,299,125,2000.0,03/2016,6166,-32.11103,115.77219
1/50 Monmouth Street,Mount Lawley,625000,3,2,2.0,1000,110,1990.0,09/2019,6050,-31.92983,115.86548
1/51 Cyril Street,Bassendean,320000,3,1,1.0,5974,88,1986.0,09/2018,6054,-31.9117986,115.9400942
1/53 Carrington Street,Palmyra,420000,3,1,1.0,1048,123,1991.0,02/2019,6157,-32.04404,115.77909
1/58 Second Avenue,Rossmoyne,975000,3,2,2.0,474,236,1999.0,10/2014,6148,-32.03752153,115.8668993
1/584 Canning Highway,Attadale,370000,2,1,1.0,1849,89,1987.0,02/2018,6156,-32.03055,115.81537
1/59 Hastings Street,Scarborough,579000,3,2,,3502,133,1990.0,10/2020,6019,-31.8996,115.75956
1/59 Waddell Road,Bicton,355000,2,1,1.0,2644,68,1975.0,12/2017,6157,-32.0321618,115.7918895
1/6 Bellevue Terrace,West Perth,2300000,3,3,2.0,2133,184,1980.0,12/2017,6005,-31.95659,115.84513
1/6 Cato Street,Glendalough,515000,3,1,2.0,248,127,1994.0,11/2017,6016,-31.91724,115.8207
1/6 Pearse Street,North Fremantle,665000,2,1,1.0,250,119,1984.0,10/2018,6159,-32.03635132,115.7528121
1/63 SAW AVENUE,Rockingham,342000,4,2,1.0,1754,117,,06/2020,6168,-32.28116,115.71855
1/63 Sayer Street,Midland,330000,3,1,1.0,246,100,1994.0,03/2017,6056,-31.88482,116.00997
1/66 MOREING STREET,Redcliffe,325000,2,1,1.0,3643,79,,11/2018,6104,-31.93941086,115.9381486
1/67 Upton Street,St James,365000,3,1,2.0,224,126,1995.0,06/2018,6102,-32.00305,115.90882
1/69 Calais Road,Scarborough,600000,3,1,2.0,1012,129,1994.0,07/2020,6019,-31.90487,115.76777
1/69 Welwyn Avenue,Salter Point,670000,3,2,4.0,408,163,,06/2018,6152,-32.02052357,115.868859
1/7 Blandfield Way,Parkwood,350000,3,1,2.0,479,140,,07/2017,6147,-32.05017,115.90909
1/7 Chidlow Street,Mount Helena,470000,2,2,2.0,598,130,2013.0,12/2015,6082,-31.8757187,116.2146687
1/7 Hodgson Lane,Mundaring,400000,2,1,2.0,249,100,2010.0,12/2018,6073,-31.90290468,116.1700195
1/79 Hardy Road,Ashfield,370000,3,1,2.0,401,126,1963.0,10/2009,6054,-31.92046966,115.9385534
1/79 Sayer Street,Midland,360000,3,2,2.0,172,97,2007.0,05/2016,6056,-31.88318403,116.0099757
1/8 Benson Court,Mount Nasura,375000,3,2,2.0,406,167,2015.0,10/2015,6112,-32.13543175,116.0187049
1/8 Betula Street,Riverton,720000,4,2,2.0,807,170,2012.0,05/2016,6148,-32.03604437,115.8929414
1/8 Burdett Retreat,Murdoch,457000,3,1,1.0,804,116,,02/2016,6150,-32.06131,115.83035
1/8 Sonia Street,Scarborough,494000,3,1,1.0,277,90,1989.0,11/2019,6019,-31.9045,115.77154
1/86 Ivanhoe Street,Eden Hill,409500,3,2,2.0,349,109,1994.0,02/2015,6054,-31.89414,115.94666
1/9 Glencairn Way,Parkwood,378000,3,1,1.0,1598,78,1976.0,02/2016,6147,-32.04527,115.91988
1/9 Westbrook Way,Girrawheen,300000,3,1,2.0,17780,77,1971.0,08/2016,6064,-31.84182,115.84484
1/94 Kathleen Street,Bassendean,530000,4,2,2.0,1803,182,2008.0,03/2020,6054,-31.91236403,115.9444623
1/95 Kent Street,Rockingham,360000,3,1,1.0,227,107,1994.0,02/2020,6168,-32.27162,115.73886
1/96 North Beach Road,North Beach,777000,3,2,2.0,468,154,1997.0,12/2015,6020,-31.86073,115.76267
1/99 Roberts Road,Subiaco,450000,2,1,2.0,804,73,1986.0,12/2019,6008,-31.94575,115.83556
10 Aberdare Way,Warwick,555000,4,2,2.0,714,160,1971.0,09/2017,6024,-31.83829,115.80963
10 Abingdon Place,Kelmscott,213000,3,1,2.0,789,135,1971.0,10/2017,6111,-32.12503616,116.0015605
10 Abrolhos Drive,Heathridge,560000,4,2,2.0,486,210,2002.0,08/2017,6027,-31.76838,115.75302
10 Ada Street,Watermans Bay,1730000,2,1,2.0,1024,538,1976.0,07/2015,6020,-31.85005862,115.7528089
10 Addingham Crescent,Bertram,455000,4,2,2.0,593,200,2004.0,11/2016,6167,-32.25049428,115.8456071
10 Adelong Circuit,Merriwa,250000,3,2,2.0,507,139,2001.0,06/2016,6030,-31.66168,115.70634
10 Adonis Street,Mundijong,332000,3,1,1.0,2126,140,1980.0,08/2012,6123,-32.29693,115.97762
10 Aitken Place,Noranda,578000,5,2,2.0,700,212,1979.0,08/2020,6062,-31.87305,115.8852
10 Albert Street,Bellevue,450000,3,1,2.0,629,145,1955.0,03/2015,6056,-31.89979,116.03732
10 Aleaha Brace,Aveley,291000,3,2,4.0,475,104,2013.0,05/2019,6069,-31.77608885,115.9871773
10 Alford Way,Alkimos,385000,3,2,2.0,300,133,2012.0,03/2018,6038,-31.62974333,115.7051012
10 Altai Dale,Stratton,435000,4,2,2.0,609,146,1995.0,03/2016,6056,-31.8674,116.04559
10 Ameer Way,Beeliar,530000,4,2,2.0,501,203,2016.0,08/2017,6164,-32.13200555,115.8072612
10 Amery Road,Hocking,495000,4,2,2.0,543,160,2005.0,05/2017,6065,-31.76609,115.81806
10 Andrews Way,Herne Hill,380000,4,1,2.0,813,121,1974.0,01/2016,6056,-31.828,116.02165
10 Anne Avenue,Walliston,440000,3,2,3.0,891,191,,11/2012,6076,-31.99409,116.06807
10 Anstey Street,Mundijong,550000,3,2,2.0,2028,152,1982.0,11/2013,6123,-32.29592449,115.9833397
10 Antigua Place,Southern River,455000,4,2,2.0,567,147,2002.0,06/2020,6110,-32.08761,115.95234
10 Apara Place,Koongamia,389000,3,2,5.0,1086,122,1990.0,06/2012,6056,-31.90530269,116.0471945
10 Aparri Way,Port Kennedy,360000,4,2,2.0,640,190,2004.0,07/2019,6172,-32.366395,115.7505099
10 Appleby Drive,Darch,505000,4,2,2.0,601,235,2005.0,10/2017,6065,-31.81691526,115.8459507
10 APPLETON Road,Piara Waters,485000,4,2,2.0,560,193,2015.0,10/2018,6112,-32.14126833,115.9164837
10 Apsley Bend,Tapping,600000,4,2,2.0,624,212,2006.0,07/2017,6065,-31.7106744,115.800644
10 Aquanita Rise,Darling Downs,700000,4,2,4.0,4042,242,2008.0,08/2013,6122,-32.20279157,116.0097386
10 Araucaria Boulevard,Byford,318000,4,2,4.0,564,185,2005.0,08/2019,6122,-32.20741362,116.0063434
10 Archdeacon Street,Nedlands,1690000,5,2,2.0,810,190,1981.0,10/2017,6009,-31.97937,115.81034
10 Archimedes Crescent,Tapping,430000,5,2,2.0,571,198,2006.0,11/2019,6065,-31.71719329,115.8019612
10 Arkwell Street,Willagee,832000,5,2,2.0,810,255,1960.0,05/2017,6156,-32.0481,115.80706
10 Armitage Close,South Guildford,380000,3,1,2.0,475,122,1995.0,08/2017,6055,-31.90838,115.98673
10 ARTARMON RISE,Kallaroo,1140000,4,2,2.0,936,347,2001.0,02/2020,6025,-31.78872,115.74035
10 Astrolabe Way,Swan View,340000,4,2,2.0,484,173,2011.0,06/2019,6056,-31.87848391,116.0393199
10 Atkinson Road,Subiaco,1575000,3,2,2.0,297,296,,07/2018,6008,-31.94537,115.81903
10 Auborough Street,Doubleview,648500,2,1,2.0,645,113,,01/2020,6018,-31.89781513,115.7825859
10 Aurora Drive,Atwell,537000,4,2,2.0,707,305,2007.0,01/2019,6164,-32.14709,115.86256
10 Axewood Place,Beechboro,406000,3,1,4.0,699,117,1993.0,06/2018,6063,-31.8668,115.92072
10 Aylesbury Close,Jandakot,530000,4,3,2.0,627,189,1996.0,02/2019,6164,-32.10592,115.85308
10 Baddesley Street,Butler,375000,4,2,2.0,543,192,2003.0,04/2020,6036,-31.65134,115.70347
10 Bahama Way,Banksia Grove,350000,3,2,2.0,360,164,2011.0,09/2020,6031,-31.693206,115.8033584
10 Ballymote Gardens,Ridgewood,291000,4,2,2.0,561,136,,03/2018,6030,-31.655381,115.721323
10 Banchory Way,The Vines,610000,4,2,2.0,763,265,2007.0,09/2018,6069,-31.75125034,116.0081083
10 Banjine Road,Koongamia,160000,2,1,1.0,773,87,1965.0,09/2004,6056,-31.90852105,116.0445779
10 Banksia Court,Bullsbrook,370000,4,2,2.0,663,142,1992.0,07/2016,6084,-31.66033971,116.041524
10 Barbera Lane,The Vines,895000,4,2,3.0,4002,288,2004.0,08/2020,6069,-31.75483,115.99565
10 Barcelona Terrace,Hocking,539000,4,2,2.0,566,224,2005.0,06/2019,6065,-31.76894,115.82119
10 Barcroft Court,Atwell,395000,4,2,1.0,360,128,2003.0,02/2020,6164,-32.1373,115.86628
10 Barnden Road,Helena Valley,695500,4,2,2.0,600,247,2011.0,03/2017,6056,-31.91701081,116.026102
10 Barranduna Drive,Mount Nasura,355000,3,1,3.0,689,138,,08/2017,6112,-32.14509563,116.0240047
10 Barrington Avenue,Champion Lakes,185000,4,2,2.0,420,191,2010.0,10/2009,6111,-32.11564044,115.9928519
10 Barrington Street,West Leederville,1279000,4,3,2.0,384,218,,11/2018,6007,-31.93585282,115.8358372
10 Basedow Chase,Banksia Grove,445000,4,2,2.0,440,173,2014.0,06/2017,6031,-31.69301704,115.8055568
10 Basico Avenue,Sinagra,549000,5,2,2.0,613,220,2008.0,09/2017,6065,-31.73743,115.80558
10 Batavia Way,Salter Point,966000,3,1,2.0,842,100,1965.0,03/2014,6152,-32.0222,115.86203
10 Bathgate Loop,Koondoola,415000,3,1,1.0,600,116,1995.0,05/2015,6064,-31.83954,115.85996
10 Beacham Road,Serpentine,759000,4,2,3.0,4428,261,,12/2020,6125,-32.358105,115.9732
10 Becket Court,Camillo,320000,4,1,1.0,711,180,1978.0,08/2018,6111,-32.11736136,115.9997324
10 Bedale Street,Dianella,545000,4,2,2.0,373,148,1999.0,10/2020,6059,-31.89984,115.88791
10 Beechcroft Place,Camillo,240000,3,1,2.0,707,91,1978.0,11/2020,6111,-32.11975434,115.9913258
10 Beenan Elbow,South Guildford,101200,3,2,2.0,454,136,,07/2017,6055,-31.90771,115.98747
10 Belaring Place,Kenwick,430000,4,2,1.0,323,108,1996.0,01/2015,6107,-32.04608,115.97173
10 Belfast Crescent,Ridgewood,333000,3,2,2.0,423,134,2007.0,12/2017,6030,-31.658308,115.718014
10 Bellport Parade,Mindarie,670000,5,2,2.0,689,275,2006.0,11/2017,6030,-31.68283,115.7123
10 Belvoir Place,Ballajura,430000,4,2,2.0,601,159,1991.0,10/2018,6066,-31.83937,115.90665
10 Beor Way,Herne Hill,350000,3,1,2.0,809,137,1973.0,11/2009,6056,-31.82809,116.02045
10 Berkeley Street,Heathridge,450000,4,2,2.0,363,122,1985.0,06/2017,6027,-31.75740427,115.7494229
10 Berlotto Drive,Ashby,510000,3,2,2.0,425,158,2006.0,01/2016,6065,-31.7291,115.7988
10 Berrigan Drive,South Lake,380000,3,1,2.0,702,98,1985.0,03/2018,6164,-32.11442,115.8373
10 Bertram Street,Dianella,350000,3,1,,464,72,1977.0,04/2020,6059,-31.8843,115.8697
10 Beverley Street,Coolbinia,1188000,4,2,1.0,806,218,1958.0,11/2009,6050,-31.91304,115.85389
10 Biara Road,Yanchep,272000,3,2,2.0,403,132,2014.0,06/2018,6035,-31.53078348,115.6333185
10 Bight Reefs Road,Singleton,432500,3,1,1.0,892,122,1969.0,05/2016,6175,-32.45185,115.75188
10 Bilcich Gardens,Spearwood,515000,4,2,,610,227,,02/2019,6163,-32.11097,115.7764
10 Bilkurra Way,Mount Nasura,289000,3,1,1.0,788,120,1985.0,05/2019,6112,-32.14465711,116.0250917
10 Billing Way,Caversham,665000,4,2,2.0,513,237,2013.0,11/2018,6055,-31.8681039,115.9739647
10 Bilya Avenue,Mardella,679000,4,2,2.0,3909,211,2002.0,01/2008,6125,-32.30841,115.98466
10 Binar Court,South Guildford,400000,4,2,2.0,787,146,1996.0,02/2017,6055,-31.9154,115.98797
10 Binden Place,Hamersley,510000,4,2,1.0,737,82,1972.0,12/2016,6022,-31.85102,115.80516
10 Bingarra Close,Port Kennedy,390000,4,2,,691,145,1994.0,12/2019,6172,-32.3633,115.75393
10 Bingfield Road,Medina,265000,3,1,2.0,728,90,1965.0,07/2014,6167,-32.23091,115.80013
10 Binnia Mews,Harrisdale,430000,3,2,2.0,451,145,2008.0,12/2019,6112,-32.11528769,115.9168464
10 Birch Place,Stoneville,560000,4,2,2.0,1843,181,1989.0,08/2020,6081,-31.8732931,116.1631578
10 Birchgrove Court,Bibra Lake,585000,4,2,2.0,502,201,2001.0,03/2020,6163,-32.09309,115.812581
10 Birkenhead Ridge,Mindarie,835000,4,3,,738,306,2005.0,03/2020,6030,-31.68365,115.70563
10 Bishop Close,Seville Grove,367000,4,2,2.0,514,145,,10/2020,6112,-32.14377,115.99213
10 Bishop Riley Way,Churchlands,1850000,5,3,2.0,737,370,2003.0,04/2018,6018,-31.91462,115.79849
10 Blackboy Road,Greenmount,490000,4,2,4.0,903,157,1989.0,11/2017,6056,-31.89414279,116.0423273
10 Blackman Road,Mount Pleasant,1475000,4,3,2.0,729,346,1955.0,03/2019,6153,-32.0339,115.84557
10 Bland Street,Kensington,1250000,3,2,2.0,787,210,1957.0,08/2019,6151,-31.98684,115.87738
10 Blenny Close,Cannington,476000,3,1,2.0,697,125,1980.0,05/2017,6107,-32.00823,115.92839
10 Block Place,Ocean Reef,1000000,5,3,3.0,890,294,1991.0,03/2018,6027,-31.76047,115.73436
10 Bondini Way,Bibra Lake,522000,4,2,2.0,719,169,1979.0,03/2018,6163,-32.08923,115.8452
10 Booligal Street,Lesmurdie,425000,3,1,,1195,79,1978.0,05/2017,6076,-32.00325,116.05748
10 Bosbaan Place,Champion Lakes,196000,4,2,2.0,451,180,2013.0,09/2012,6111,-32.11842915,115.9910315
10 Bowen Place,Stoneville,520000,4,2,4.0,1955,122,1989.0,04/2015,6081,-31.87084,116.16967
10 Boyd Street,Palmyra,535000,4,1,6.0,518,82,,12/2018,6157,-32.03721162,115.7928177
10 Bradbury Place,Alexander Heights,331500,3,1,2.0,403,109,1994.0,07/2019,6064,-31.83365836,115.855598
10 Braden Way,Marmion,1620000,5,3,3.0,720,339,2009.0,04/2012,6020,-31.84084,115.75482
10 Brae Court,Cooloongup,330000,4,1,2.0,933,148,1989.0,12/2020,6168,-32.28796,115.76467
10 Bramley Terrace,The Vines,555000,4,2,2.0,714,209,2007.0,09/2019,6069,-31.74862473,116.0154965
10 Brantwood Turn,Wellard,396000,4,2,2.0,449,134,2014.0,03/2018,6170,-32.27244793,115.8251769
10 Brassey Street,Swanbourne,1810000,4,2,2.0,607,255,1996.0,05/2016,6010,-31.97735,115.76905
10 Breton Court,Ballajura,421000,4,2,2.0,504,149,1995.0,10/2020,6066,-31.85241,115.90676
10 Bricknell Road,Attadale,830000,3,1,2.0,1410,124,1952.0,09/2018,6156,-32.03012399,115.8065635
10 Bridal Crescent,Kenwick,330000,3,1,2.0,6157,98,2004.0,06/2016,6107,-32.04135665,115.9751466
10 Bridges Rise,Kiara,390000,4,2,1.0,484,150,1994.0,04/2011,6054,-31.88398,115.94402
10 Bridget Place,Shelley,1600000,4,2,2.0,1029,300,2002.0,06/2016,6148,-32.0312,115.88066
10 Brigalow Way,Armadale,220000,3,1,2.0,713,106,1972.0,02/2020,6112,-32.14575785,115.9968621
10 Brinckley Crescent,Koondoola,362000,4,2,1.0,692,120,1976.0,06/2018,6064,-31.84684,115.86353
10 Bristow Street,Haynes,167000,3,2,2.0,340,151,2015.0,02/2014,6112,-32.15943529,115.9888948
10 Broad Street,Kensington,1390000,4,2,3.0,420,298,2006.0,03/2015,6151,-31.98547,115.8791
10 Broadbeach Boulevard,Hillarys,955000,4,2,,828,226,1990.0,05/2019,6025,-31.79938,115.73726
10 Brolga Court,Beeliar,570000,4,2,3.0,639,245,2007.0,10/2018,6164,-32.135481,115.812451
10 Broomhall Way,Noranda,635000,4,2,2.0,809,150,1976.0,11/2017,6062,-31.87892,115.88128
10 Brumby Avenue,Henley Brook,507500,4,2,2.0,528,150,2002.0,08/2014,6055,-31.79678,115.97494
10 Bruns Drive,Darling Downs,785000,4,2,2.0,4186,261,2003.0,01/2017,6122,-32.18767425,116.0106203
10 Bruny Meander,Wandi,850000,4,2,2.0,532,254,,02/2015,6167,-32.19080138,115.8633221
10 Bungalow Court,Peppermint Grove,2400000,4,5,4.0,444,420,2012.0,04/2007,6011,-32.00224362,115.7683182
10 Burleigh Drive,Burns Beach,860000,4,2,2.0,576,243,2012.0,04/2017,6028,-31.72204212,115.7295584
10 Burnettia Lane,Mount Claremont,1100000,3,2,,318,247,2001.0,10/2019,6010,-31.96881,115.79387
10 Burtonia Place,Canning Vale,680000,4,2,2.0,770,224,1992.0,06/2020,6155,-32.07801,115.91601
10 BUTCHART TURN,Aubin Grove,740000,4,2,2.0,660,280,2007.0,07/2016,6164,-32.17005597,115.8665007
10 Byfield Road,Parkerville,382000,3,1,1.0,1008,103,1955.0,11/2016,6081,-31.87808,116.1375
10 Cadoux Loop,Hocking,470000,4,2,6.0,864,224,2005.0,11/2018,6065,-31.76724,115.81796
10 Caduceus Way,Hilbert,730000,4,2,3.0,2516,256,2009.0,03/2016,6112,-32.17905269,115.9855213
10 Calabar Court,Merriwa,367000,4,2,1.0,588,138,1990.0,03/2016,6030,-31.66781,115.71057
10 Cale Court,Maddington,375000,3,2,3.0,510,126,2001.0,12/2017,6109,-32.0452898,116.0035196
10 Calgary Place,Kingsley,481000,3,1,2.0,608,130,1993.0,09/2019,6026,-31.80335,115.79329
10 Calume Street,Hillman,310000,4,1,1.0,701,161,1973.0,05/2017,6168,-32.281,115.76014
10 Campbell Court,Noranda,651000,4,2,2.0,867,227,1985.0,03/2019,6062,-31.87846,115.90824
10 Campion Crescent,Attadale,1065000,4,2,2.0,771,170,,07/2020,6156,-32.02904,115.80285
10 Campolino Gardens,Stratton,360000,4,2,4.0,759,137,,02/2017,6056,-31.86684,116.04713
10 Camrose Lane,Darch,531000,4,2,,549,217,2007.0,04/2019,6065,-31.814125,115.85166
10 Cantrell Circuit,Landsdale,645000,4,2,2.0,710,280,1998.0,12/2018,6065,-31.80196,115.8607
10 Cape Gardens,Ellenbrook,550000,5,2,2.0,651,193,,12/2020,6069,-31.75453542,115.9834358
10 Cape Le Grand Avenue,Aubin Grove,705000,4,2,6.0,713,237,2006.0,04/2016,6164,-32.16425,115.86205
10 Carnforth Road,Butler,355500,4,2,2.0,540,194,2004.0,09/2020,6036,-31.64565619,115.7128799
10 Carrick Way,Kinross,442500,4,2,2.0,914,201,1983.0,10/2019,6028,-31.71878114,115.7395043
10 Cassidae Terrace,Karrinyup,1030000,4,2,2.0,434,204,2006.0,09/2020,6018,-31.88435,115.7786
10 Castledene Way,Tapping,500000,4,2,3.0,685,214,,06/2019,6065,-31.71193292,115.8000103
10 Castroreale Boulevard,Sinagra,455000,4,2,2.0,566,224,2005.0,03/2018,6065,-31.73942,115.80313
10 Cathedral Link,Aubin Grove,585000,4,2,2.0,556,234,,12/2018,6164,-32.167431,115.863638
10 Celtic Crescent,Shoalwater,390000,3,2,2.0,459,170,2006.0,05/2018,6169,-32.295295,115.718037
10 Cereza Lane,Caversham,447500,3,2,,400,168,2012.0,11/2020,6055,-31.86442126,115.9669604
10 Cerulean Road,Karnup,179000,3,1,2.0,405,159,2015.0,09/2014,6176,-32.44582454,115.7644814
10 Cestrum Rise,South Lake,550000,4,2,2.0,741,184,1993.0,08/2016,6164,-32.10217,115.84692
10 Chalk Elbow,Pearsall,570000,4,2,2.0,612,243,,10/2015,6065,-31.77808538,115.8182368
10 Champagne Terrace,The Vines,780000,5,2,4.0,4306,225,1991.0,12/2017,6069,-31.75794,116.01467
10 Charles Street,South Fremantle,1600000,4,2,3.0,526,191,1900.0,09/2015,6162,-32.06614,115.75361
10 Chauvel Court,Kiara,430000,4,2,2.0,501,134,1995.0,12/2012,6054,-31.88459,115.94288
10 Chelmorton Loop,Carine,770000,4,2,2.0,706,161,,11/2016,6020,-31.85329,115.77289
10 Chelmsford Road,Mount Lawley,845000,3,1,1.0,309,131,1920.0,08/2020,6050,-31.93544269,115.8704109
10 Chenile Mews,Mirrabooka,100000,4,1,,684,104,1988.0,01/2016,6061,-31.86195059,115.8654238
10 Chervil Bend,Wattle Grove,560000,4,2,2.0,599,207,2012.0,11/2017,6107,-32.00024008,115.9786658
10 Chesapeake Parade,Port Kennedy,480000,4,2,2.0,754,190,2001.0,11/2019,6172,-32.37457,115.74781
10 Chesterfield Avenue,Hocking,460000,3,2,2.0,296,130,2006.0,10/2017,6065,-31.76820029,115.8211703
10 Chestnut Street,Guildford,780000,3,2,2.0,527,164,1997.0,02/2015,6055,-31.89824101,115.9826781
10 Chile Way,Aubin Grove,555000,4,2,2.0,460,190,2013.0,03/2019,6164,-32.17034822,115.8602413
10 Chinook Drive,Dayton,475000,4,2,2.0,375,183,2013.0,05/2016,6055,-31.85412923,115.9724794
10 Chiswick Street,Wembley Downs,1025000,4,2,2.0,787,199,1958.0,08/2018,6019,-31.91961,115.77247
10 Chittawarra Court,Glen Forrest,567000,4,1,,1901,201,1993.0,09/2019,6071,-31.90263,116.09397
10 Chivrell Rise,Gwelup,920000,4,2,2.0,716,240,1994.0,12/2017,6018,-31.85967,115.79844
10 Choseley Place,Langford,160000,4,1,1.0,612,103,1989.0,07/2015,6147,-32.04214,115.94105
10 Christina Street,Hazelmere,600000,4,3,2.0,2027,200,1956.0,01/2013,6055,-31.90056,115.99444
10 Christmas Avenue,Heathridge,453500,4,2,2.0,688,127,1986.0,06/2017,6027,-31.7578,115.75153
10 Churchman Brook Road,Bedfordale,650000,3,1,2.0,39837,125,,08/2020,6112,-32.14484,116.07006
10 Churton Crescent,Warwick,610000,3,1,4.0,730,89,1970.0,12/2016,6024,-31.84377,115.80643
10 Citriadora Avenue,High Wycombe,575000,4,2,2.0,635,254,2005.0,03/2020,6057,-31.9351915,116.0161732
10 Claiborne Road,Secret Harbour,470000,4,2,2.0,584,285,2005.0,07/2019,6173,-32.40964864,115.7713844
10 Classroom Loop,Coolbellup,510000,4,2,2.0,375,184,2014.0,09/2019,6163,-32.08174536,115.8156624
10 Clayden Street,Wooroloo,358000,4,1,1.0,2427,166,1981.0,10/2009,6558,-31.80247,116.31128
10 Clearview Avenue,Burns Beach,1500000,5,4,8.0,610,500,2011.0,04/2016,6028,-31.726999,115.719527
10 CLEMTON PLACE,Landsdale,520000,4,2,2.0,650,270,1999.0,08/2019,6065,-31.80308,115.85827
10 Cleopatra Circuit,Bertram,410000,4,2,2.0,612,148,2005.0,10/2020,6167,-32.25330798,115.8438598
10 Clifton Street,Kelmscott,290000,3,1,,809,110,1974.0,10/2020,6111,-32.10738455,116.0190336
10 Clint Way,Calista,228500,3,1,1.0,654,91,,08/2020,6167,-32.2426,115.80325
10 Clyde Road,Menora,1350000,4,2,2.0,759,255,1935.0,02/2006,6050,-31.92041,115.8592
10 Clydesdale Street,Alfred Cove,855000,4,2,2.0,1095,189,1994.0,11/2017,6154,-32.03257,115.81986
10 Coatelan Drive,Stirling,925000,5,3,8.0,769,302,1980.0,09/2018,6021,-31.89385,115.81252
10 Coleridge Place,North Lake,700000,4,3,2.0,735,293,1996.0,07/2008,6163,-32.08231,115.81972
10 College Road,Claremont,1200000,3,1,2.0,326,196,,09/2020,6010,-31.97475,115.79061
10 Colne Way,Girrawheen,385000,3,1,2.0,771,120,1973.0,07/2016,6064,-31.8467,115.84242
10 Cologne Gardens,Port Kennedy,379000,4,2,2.0,645,206,,09/2020,6172,-32.36923,115.74696
10 Columba Place,Peppermint Grove,1920000,5,3,2.0,704,390,1976.0,03/2016,6011,-32.00272,115.76237
10 Como Way,Stirling,1240000,4,3,3.0,491,481,2008.0,01/2020,6021,-31.89153039,115.8180188
10 Congdon Way,Booragoon,750000,4,2,2.0,812,197,1981.0,09/2017,6154,-32.04568,115.83038
10 Conimbla Lane,Aubin Grove,660000,4,4,3.0,654,251,2007.0,02/2018,6164,-32.166721,115.863079
10 Coniston Bend,Waikiki,530000,3,2,3.0,523,205,2011.0,10/2019,6169,-32.32137192,115.7589121
10 Coniston Drive,Ellenbrook,325000,4,2,2.0,384,143,2006.0,12/2020,6069,-31.770552,115.971079
10 Connelly Place,Mount Helena,565000,4,2,2.0,2001,226,2009.0,06/2016,6082,-31.86496116,116.2187879
10 Conrad Way,Currambine,597000,5,2,2.0,719,237,2002.0,04/2019,6028,-31.73359,115.75236
10 Continental Boulevard,Currambine,760000,4,2,2.0,588,284,2003.0,11/2016,6028,-31.73160661,115.7465819
10 Coogan Close,Yangebup,400000,3,1,2.0,730,135,1987.0,09/2020,6164,-32.12407,115.81538
10 Coolibah Drive,Greenwood,476500,3,1,1.0,683,128,1970.0,05/2018,6024,-31.83296,115.80199
10 Copper Lane,Wattle Grove,500000,4,2,2.0,556,139,2004.0,08/2016,6107,-31.991871,115.9853869
10 Coralgum Green,South Lake,568000,4,2,2.0,613,223,2009.0,07/2016,6164,-32.11381513,115.8432847
10 Corella Street,Lesmurdie,505000,3,1,3.0,1012,91,1969.0,05/2016,6076,-32.00274,116.05497
10 Cornell Place,East Cannington,600000,5,2,2.0,610,225,2004.0,10/2017,6107,-32.00555746,115.9618398
10 Correa Way,Mirrabooka,365000,3,1,4.0,690,90,1987.0,02/2017,6061,-31.85792356,115.8606111
10 Corrour Bend,Bertram,245000,3,2,1.0,301,105,2012.0,06/2019,6167,-32.23866083,115.8439947
10 Cottontree Lane,Bennett Springs,570000,4,2,2.0,597,236,2008.0,09/2015,6063,-31.85826619,115.9282404
10 Coulsen Close,Noranda,675000,4,2,2.0,676,170,1995.0,09/2017,6062,-31.87092,115.88559
10 Cowper Street,Lynwood,448000,3,1,2.0,688,119,1974.0,11/2016,6147,-32.04574,115.92519
10 Coyne Street,Mount Helena,355000,4,2,2.0,2023,224,2016.0,09/2014,6082,-31.87661547,116.212734
10 Crab Cove,Mindarie,570000,3,2,2.0,380,163,1994.0,08/2020,6030,-31.69011,115.70657
10 Crake Street,Ascot,730000,3,2,2.0,367,132,2002.0,06/2019,6104,-31.93605,115.91608
10 Cranberry Way,Kenwick,316500,3,1,1.0,568,109,1994.0,07/2016,6107,-32.03335,115.99283
10 Cranford Avenue,Mount Pleasant,750000,3,2,2.0,456,153,1996.0,01/2018,6153,-32.04069,115.85668
10 Cranwell Road,Balcatta,880000,2,1,,788,343,1964.0,10/2019,6021,-31.87493,115.82317
10 Craven Street,Bedford,615750,3,1,6.0,589,120,1978.0,07/2018,6052,-31.90864,115.88817
10 Cresswell Place,Quinns Rocks,450000,4,2,2.0,585,123,1995.0,12/2019,6030,-31.6643,115.7052
10 Creswick Cross,Kiara,168000,4,2,2.0,525,125,1993.0,09/2007,6054,-31.88135,115.93632
10 Crossway,Swan View,295000,3,1,1.0,709,94,1981.0,09/2018,6056,-31.87819,116.03692
10 Crystal Turn,Bennett Springs,435000,4,2,2.0,544,153,2002.0,08/2016,6063,-31.86055183,115.9393654
10 Crystalview Cove,Ballajura,685000,4,2,2.0,1035,219,1990.0,03/2019,6066,-31.83949,115.88668
10 Currawong Court,Bennett Springs,535000,4,2,2.0,621,185,2000.0,06/2016,6063,-31.85860155,115.9448724
10 Currawong Crescent,Walliston,510000,4,1,1.0,1813,140,1972.0,11/2013,6076,-31.99178,116.06921
10 Curruthers Road,Mount Pleasant,830000,3,2,2.0,433,152,1996.0,01/2019,6153,-32.03678729,115.8541122
10 Curtin Road,Marangaroo,426000,4,2,6.0,510,120,1996.0,10/2017,6064,-31.82254,115.83908
10 Dacelo Vista,Waterford,559900,4,2,2.0,450,255,2013.0,08/2011,6152,-32.01411569,115.8949036
10 Daly Circle,Langford,550000,4,2,2.0,500,211,2003.0,08/2015,6147,-32.03543,115.93609
10 Dan Close,Walliston,205000,4,2,2.0,4003,256,,01/2004,6076,-32.00265,116.07006
10 Dane Court,Brookdale,345000,4,2,3.0,504,132,1997.0,06/2015,6112,-32.16819,116.00911
10 Daniels Place,Bertram,394000,4,2,2.0,566,223,2006.0,11/2020,6167,-32.2513906,115.8381918
10 Darling Range Drive,Bedfordale,715000,4,2,6.0,3900,218,2002.0,06/2014,6112,-32.15377,116.06536
10 Darrowby Place,Sawyers Valley,597000,4,2,1.0,1836,179,1988.0,04/2014,6074,-31.90516,116.20614
10 Dartmouth Avenue,City Beach,1685000,4,2,2.0,607,170,1955.0,03/2016,6015,-31.94518,115.75797
10 Darwinia Court,Jarrahdale,590000,3,2,2.0,4000,160,2007.0,06/2013,6124,-32.33833484,116.0517661
10 DAVID STREET,Kensington,820000,3,1,1.0,506,97,1950.0,05/2018,6151,-31.98801,115.87496
10 Daviesia Corner,Dayton,500000,4,2,2.0,476,195,2012.0,08/2015,6055,-31.85640114,115.9702404
10 Davilak Crescent,Manning,1080000,4,2,2.0,911,225,2012.0,07/2019,6152,-32.00953113,115.8652855
10 Dawn Road,Walliston,445000,3,1,1.0,994,107,,09/2012,6076,-31.99375,116.06933
10 De Grey Retreat,Jane Brook,605000,4,2,2.0,753,234,2002.0,01/2015,6056,-31.85923,116.04369
10 Dean Street,Mount Helena,446000,3,1,1.0,1370,112,1981.0,11/2017,6082,-31.8845,116.21382
10 Denver Avenue,Madeley,690000,4,2,2.0,1241,435,1990.0,03/2018,6065,-31.80820188,115.8211316
10 Derry Lane,Mosman Park,2070000,4,4,2.0,426,377,2007.0,06/2017,6012,-32.02211,115.7594
10 Desertpea Road,Beeliar,503000,3,2,2.0,384,161,2014.0,10/2019,6164,-32.12791183,115.7908552
10 Deverall Square,Hillarys,880000,4,2,2.0,600,259,1998.0,12/2019,6025,-31.8008,115.74155
10 Dillwynia Bend,Banksia Grove,430000,4,2,2.0,465,186,,05/2019,6031,-31.69416322,115.7949977
10 Direction Way,North Fremantle,1700000,3,3,2.0,259,165,1996.0,11/2017,6159,-32.031315,115.759115
10 Doherty Road,Coolbellup,599000,4,2,2.0,1011,158,,09/2016,6163,-32.07785,115.81544
10 Domain Court,Greenmount,410000,4,1,1.0,709,132,1989.0,06/2020,6056,-31.89651853,116.0394502
10 Domeney Place,Landsdale,455000,4,2,2.0,600,161,2000.0,02/2020,6065,-31.80282,115.85833
10 Donnelly Link,Jane Brook,545000,3,2,2.0,694,210,2003.0,08/2018,6056,-31.859652,116.051684
10 Doriemus Road,Baldivis,692500,3,3,,609,269,2015.0,10/2020,6171,-32.33901884,115.8181152
10 Dorney Esplanade,Champion Lakes,250000,4,2,2.0,413,170,2015.0,03/2014,6111,-32.11350433,115.9932837
10 Dowlan Way,Ellenbrook,385000,4,2,4.0,552,184,2008.0,10/2019,6069,-31.763571,115.972116
10 Drummore Elbow,Stratton,295000,4,2,1.0,537,140,,10/2019,6056,-31.86517,116.0363
10 Dublin Road,Darch,570000,4,2,2.0,576,192,2006.0,11/2016,6065,-31.80664726,115.8376134
10 Duff Place,Booragoon,860000,4,3,2.0,696,206,1975.0,11/2017,6154,-32.04466,115.83797
10 Dumsday Drive,Forrestdale,275000,4,2,2.0,794,234,,08/2013,6112,-32.14837046,115.9380166
10 Dunmore Crescent,Harrisdale,532500,4,2,4.0,375,239,,04/2019,6112,-32.1252829,115.931659
10 Durrington Glade,Clarkson,375000,4,2,2.0,564,137,,08/2018,6030,-31.68258,115.71989
10 Dusenberg Mews,Atwell,572500,4,2,3.0,768,176,1995.0,08/2018,6164,-32.13644,115.86404
10 Duyfken Road,Jindalee,384000,3,2,2.0,270,140,2009.0,12/2016,6036,-31.65093472,115.6962853
10 Eastbourne Street,Mosman Park,1317500,4,2,2.0,516,191,1920.0,01/2019,6012,-32.0117,115.75914
10 Edmund Way,Calista,250000,3,1,,809,106,1965.0,02/2018,6167,-32.25057,115.80413
10 Eildon Court,South Lake,472000,5,2,2.0,700,183,1989.0,05/2017,6164,-32.10587,115.84552
10 Elbury Court,Kingsley,507000,3,1,3.0,700,146,1980.0,09/2019,6026,-31.81338,115.79504
10 Elder Way,Bellevue,435000,3,1,6.0,700,120,1982.0,07/2016,6056,-31.90449933,116.0357307
10 Eldon Close,Merriwa,380000,4,2,2.0,623,135,1993.0,04/2015,6030,-31.66686,115.71322
10 Ellerby Way,Koondoola,435000,2,1,1.0,771,140,1976.0,02/2015,6064,-31.84322,115.85667
10 Emperor Approach,Success,550000,4,2,2.0,569,172,2008.0,04/2018,6164,-32.157059,115.849746
10 Emu Court,High Wycombe,365000,4,2,1.0,710,119,1989.0,10/2019,6057,-31.94448,116.0136
10 Ennis Court,Orelia,212000,3,1,2.0,734,95,1965.0,08/2016,6167,-32.23593,115.83208
10 Ensign Dale,Kelmscott,500000,4,2,2.0,651,241,2005.0,06/2020,6111,-32.11119,116.02073
10 Erlon Way,Harrisdale,406500,3,2,4.0,364,143,2011.0,05/2019,6112,-32.13284446,115.9280215
10 Erodium Place,Parkwood,460000,3,1,2.0,710,136,,10/2019,6147,-32.03935,115.91214
10 Essington Street,Huntingdale,405000,4,1,1.0,710,135,1975.0,02/2018,6110,-32.07504,115.96478
10 Ethel Street,Guildford,1160000,5,2,4.0,488,275,1910.0,12/2017,6055,-31.9002933,115.9677292
10 Etna Place,Rossmoyne,1895000,4,2,2.0,999,357,2006.0,10/2013,6148,-32.032445,115.871943
10 Ewart Street,Midvale,235000,2,1,1.0,526,94,1920.0,09/2019,6056,-31.89195,116.0223
10 Excelsior Meander,Warnbro,300000,4,2,2.0,540,129,,03/2018,6169,-32.3472,115.76641
10 Eyebright Court,Huntingdale,511250,4,2,4.0,599,151,1999.0,09/2016,6110,-32.08277,115.95622
10 Fagan Street,Yokine,505000,3,1,2.0,374,124,1963.0,10/2018,6060,-31.89408,115.84196
10 Fairview Street,Coogee,870000,4,3,,719,305,1989.0,03/2020,6166,-32.11291,115.76895
10 Fairywren Drive,Bennett Springs,455000,4,2,,457,155,2004.0,03/2017,6063,-31.86018281,115.9318754
10 Falkirk Avenue,Maylands,810000,2,1,,936,100,1915.0,09/2020,6051,-31.93144,115.89922
10 Fantail Avenue,Gwelup,960000,4,2,2.0,519,264,2003.0,05/2018,6018,-31.86588,115.79274
10 Fantail Drive,Bibra Lake,595142,4,2,2.0,702,145,1985.0,08/2016,6163,-32.10349,115.82786
10 Fantail Way,Huntingdale,375000,4,2,1.0,615,128,1994.0,08/2020,6110,-32.08153,115.96379
10 Farrier Terrace,Henley Brook,472000,4,2,2.0,554,214,2003.0,03/2013,6055,-31.79778,115.97653
10 Farringdon Way,Huntingdale,375000,3,1,,685,130,1973.0,11/2017,6110,-32.07327,115.97214
10 Fawn Way,Eglinton,412000,3,2,2.0,313,137,2014.0,06/2015,6034,-31.59707035,115.6646405
10 Feldman Crescent,Parkerville,575000,4,2,,1999,180,1985.0,01/2020,6081,-31.87744,116.14248
10 Field View,Bullsbrook,345000,4,2,2.0,722,200,,06/2019,6084,-31.66255216,116.037313
10 Fielder Road,Serpentine,680000,4,2,2.0,4340,196,2003.0,10/2018,6125,-32.37782,115.97374
10 Finchley Terrace,Joondalup,550000,3,2,2.0,347,164,1998.0,04/2019,6027,-31.73264718,115.7691689
10 Finlay Court,Rivervale,520000,3,2,2.0,350,197,2000.0,01/2019,6103,-31.96498,115.92228
10 Finsbury Grove,Mount Claremont,1525000,4,2,2.0,680,261,1995.0,11/2016,6010,-31.96067,115.77747
10 Fintry Close,Kinross,480000,4,2,2.0,706,165,1992.0,11/2018,6028,-31.72316,115.73401
10 Fionn Court,Ardross,950000,4,2,1.0,728,205,,07/2016,6153,-32.02801,115.84097
10 Firefalls Close,Huntingdale,440000,4,2,2.0,544,113,1994.0,07/2016,6110,-32.08006,115.9578
10 Flannan Place,Warwick,852500,5,3,2.0,734,401,1988.0,11/2017,6024,-31.83734,115.79794
10 Fleetwood Link,Ellenbrook,370000,4,2,2.0,420,155,2007.0,12/2020,6069,-31.76983088,115.9773284
10 Fletcher Street,Applecross,875000,2,1,1.0,464,125,1952.0,02/2019,6153,-32.01734,115.83377
10 Folland Parade,Atwell,430000,4,2,2.0,600,154,,02/2019,6164,-32.13839,115.86928
10 Fortview Road,Mount Claremont,1775000,3,2,6.0,877,238,1960.0,08/2018,6010,-31.96185546,115.7727906
10 Fourth Avenue,Rossmoyne,1423888,3,1,,814,257,1966.0,08/2017,6148,-32.0368,115.87063
10 Frederic Street,Midland,565000,3,1,,1090,155,1915.0,05/2016,6056,-31.88505,116.00288
10 Friarbird Terrace,Beeliar,550000,4,2,2.0,512,181,2006.0,09/2017,6164,-32.13439,115.812822
10 Gaffin Way,Kwinana Town Centre,162100,3,2,,203,103,2015.0,07/2013,6167,-32.24243868,115.8147429
10 Gairloch Place,Joondalup,620000,3,2,1.0,803,215,1990.0,09/2020,6027,-31.72463,115.75871
10 Galahad Way,Carine,645000,4,1,,692,111,1976.0,07/2016,6020,-31.8525809,115.7955692
10 gallipoli street,Lathlain,505000,3,2,2.0,577,115,1939.0,11/2014,6100,-31.97001793,115.9026325
10 Gatton Way,Embleton,470000,3,2,2.0,736,93,1966.0,01/2017,6062,-31.90024568,115.9148559
10 Gausson Turn,Ashby,393000,4,2,2.0,524,154,2003.0,12/2019,6065,-31.7343265,115.7955863
10 Gemini Rise,Ocean Reef,957000,5,2,2.0,824,314,1989.0,05/2017,6027,-31.76899,115.74461
10 Geoff Russell Avenue,Kinross,550000,4,2,2.0,686,214,,12/2018,6028,-31.71668,115.73536
10 Georgetown Drive,Safety Bay,370000,3,1,2.0,681,105,1989.0,04/2018,6169,-32.3023,115.73493
10 Gifford Mews,Currambine,668000,4,2,2.0,701,221,1997.0,05/2017,6028,-31.73906,115.7547
10 Gilbreth Bend,Tapping,535000,4,2,2.0,572,237,2006.0,11/2020,6065,-31.71787806,115.8021496
10 Giles Avenue,Padbury,380000,3,1,1.0,705,124,1976.0,05/2020,6025,-31.80644,115.7576
10 GLADALAN Way,Piara Waters,500000,4,2,4.0,570,192,2015.0,03/2019,6112,-32.14063267,115.9171737
10 Glen Iris Drive,Jandakot,1200000,5,2,2.0,1066,307,1997.0,10/2013,6164,-32.09939,115.85391
10 Glenallen Way,Ellenbrook,360000,4,2,2.0,552,222,2005.0,04/2020,6069,-31.770091,115.972899
10 Glenbawn Drive,South Lake,422500,3,1,1.0,702,101,1984.0,12/2015,6164,-32.10838,115.83447
10 Glencoe Place,Bedfordale,650000,4,2,2.0,3271,197,2011.0,12/2019,6112,-32.16481842,116.0603064
10 Glenfine Way,Carramar,473200,4,2,2.0,678,221,2004.0,08/2019,6031,-31.71128,115.77932
10 Glenten Way,Ferndale,545000,4,2,1.0,688,155,1978.0,09/2020,6148,-32.02996,115.92982
10 Glenwood Avenue,Helena Valley,545000,4,1,1.0,2010,115,1969.0,03/2016,6056,-31.91627,116.04522
10 Godin Court,Churchlands,1650000,5,4,6.0,1225,416,1986.0,10/2017,6018,-31.91965,115.78654
10 Goldfinch Bend,Harrisdale,471000,4,2,2.0,420,220,2010.0,10/2018,6112,-32.12268001,115.9261395
10 Goshawk Place,Huntingdale,385000,4,2,2.0,707,139,1992.0,10/2017,6110,-32.08493,115.9669
10 Grace Pass,Bennett Springs,630000,4,2,2.0,544,231,2006.0,07/2014,6063,-31.858491,115.9314922
10 Granada Loop,Seville Grove,350000,4,2,2.0,660,202,2006.0,08/2017,6112,-32.138617,115.989919
10 Grand Boulevard,Canning Vale,575000,4,2,,770,186,1995.0,06/2020,6155,-32.08936,115.92051
10 Graydon Grove,Leda,285000,3,1,5.0,700,88,1994.0,05/2014,6170,-32.26157,115.80925
10 Greenville Street,Swanbourne,1352000,3,2,,474,213,1997.0,05/2020,6010,-31.97573,115.76591
10 Greta Court,Cooloongup,310000,3,1,2.0,716,120,1984.0,09/2017,6168,-32.3023,115.75357
10 Guernsey Court,Stratton,320000,4,2,8.0,637,149,1995.0,10/2018,6056,-31.86534,116.04537
10 Gulli Court,Mount Claremont,1850000,4,3,3.0,582,525,2005.0,09/2018,6010,-31.9566476,115.7767218
10 Gwynne Corner,Jane Brook,630000,4,2,3.0,781,231,2001.0,05/2016,6056,-31.86134,116.05078
10 Halse Place,Karrinyup,1120000,5,1,,948,297,2011.0,02/2020,6018,-31.86387388,115.7749976
10 Hampshire Drive,Jindalee,670000,5,2,2.0,715,264,2010.0,05/2016,6036,-31.6523904,115.6976219
10 Harden Park Trail,Carramar,345000,3,2,2.0,367,146,,08/2020,6031,-31.70401776,115.7947132
10 Harley Terrace,Mosman Park,1250000,4,2,2.0,683,162,1970.0,09/2017,6012,-32.01641,115.76339
10 Harmony Avenue,Clarkson,370000,4,2,2.0,546,200,2006.0,01/2019,6030,-31.68111,115.72813
